school,district,piaa-district,type,class,last-enrollment-date,total,female,male,address,city,zip,county,phone,fax,website,super-name,super-email,super-phone,principal-name,principal-email,principal-phone,athletic-name,athletic-email,athletic-name,boy-baseball,boy-basketball,boy-bowling,boy-xcountry,boy-fb,boy-golf,boy-indoortrack,boy-lax,boy-rifle,boy-soccer,boy-swimming,boy-tennis,boy-track,boy-valleyball,boy-waterpolo,boy-wrestling,girl-bball,girl-bowling,girl-cheer,girl-xcountry,girl-hockey,girl-tennis,girl-golf,girl-gym,girl-indoortrack,girl-lax,girl-rifle,girl-fallsoccer,girl-springsoccer,girl-softball,girl-swimming,girl-track,girl-valleyball,girl-waterpolo,lat,lon,,,
A E O'Block Junior High School,Plum Borough,7,Public,Junior High,10/15/09,1000,514,486,440 Presque Isle Drive,PITTSBURGH,15239,Allegheny,(724) 733-2400,(724) 327-6880,,Lilian Naccarati,,,Joe Fishell,fishellj@pbsd.k12.pa.us,,Bob Alpino,alpinob@pbsd.k12.pa.us,,,X,,X,X,,,,,X,,,X,,,X,X,,,X,,,,,,,,X,,,,X,X,,40.4707432,-79.71501820000003,"440 Presque Isle Drive, Pittsburgh, PA 15239, USA 440 Presque Isle Drive PITTSBURGH PA 15239",,
A J McMullen School,Uniontown Area,7,Public,Junior High,10/5/11,230,112,118,4773 NATIONAL PIKE,MARKLEYSBURG,15459,Fayette,(724) 329-8811,(724) 329-4696,http://www.uniontown.k12.pa.us,Charles D. Machesky,charles.machesky@uasdraiders.org,,Rebecca Maddas,rebecca.maddas@uasdraiders.org,,Aaron Scott,aaron.scott@uasdraiders.org,,,X,,X,X,,,,,X,,,X,,,,X,,,X,,,,,,,,X,,,,X,,,39.774687,-79.48675800000001,"4773 National Pike, Markleysburg, PA 15459, USA 4773 NATIONAL PIKE MARKLEYSBURG PA 15459",,
A Philip Randolph Career Academy,Philadelphia,12,Public,Senior High,10/28/11,307,104,203,3101 HENRY AVE,PHILADELPHIA,19129,Philadelphia,(215) 227-4407,(215) 227-8655,,,,,Darryl C Overton,doverton@philasd.org,,,,,X,X,X,,,,,,,,,,X,,,,X,X,,,,,,,,,,,,X,,X,,,40.0081245,-75.17968209999998,"3101 Henry Avenue, Philadelphia, PA 19129, USA 3101 HENRY AVE PHILADELPHIA PA 19129",,
Abington Heights High School,Abington Heights,2,Public,Senior High,10/13/11,834,408,426,222 NOBLE RD,CLARKS SUMMIT,18411,Lackawanna,(570) 585-5300,(570) 586-8188,,Michael Mahon,,,Pamela Murray,murrayp@ahsd.org,,Randy Hanyon,hanyonr@ahsd.org,,X,X,,X,X,X,X,,,X,X,X,X,X,,X,X,,,X,X,X,X,,X,,,X,,X,X,X,X,,41.495078,-75.72371699999997,"222 Noble Road, Clarks Summit, PA 18411, USA 222 NOBLE RD CLARKS SUMMIT PA 18411",,
Abington Heights Middle School,Abington Heights,2,Public,Junior High,10/20/09,799,374,425,1555 NEWTON RANSON BLVD,CLARKS SUMMIT,18411,Lackawanna,(570) 586-1281,(570) 586-6361,,Michael Mahon,,,Edward Kairis,,,Scott Kaiser,,,,X,,X,X,,,,,X,,,X,,,X,X,,,X,X,,,,,,,,,X,,X,,,41.4771791,-75.74948719999998,"1555 Newton Ransom Boulevard, Clarks Summit, PA 18411, USA 1555 NEWTON RANSON BLVD CLARKS SUMMIT PA 18411",,
Abington High School,Abington,1,Public,Senior High,10/14/11,1815,855,960,900 HIGHLAND AVE,ABINGTON,19001,Montgomery,(215) 884-4700,(215) 885-7581,http://www.abington.k12.pa.us,Amy Sichel,amysichel@abington.k12.pa.us,,Angelo G. Berrios,AngeloBerrios@abington.k12.pa.us,,Todd M. Vaccaro,vacctm@abington.k12.pa.us,,X,X,X,X,X,X,X,X,,X,X,X,X,X,,X,X,X,,X,X,X,X,,X,X,,X,,X,X,X,X,,40.1145938,-75.1264137,"900 Highland Avenue, Abington, PA 19001, USA 900 HIGHLAND AVE ABINGTON PA 19001",,
Abington Junior High School,Abington,1,Public,Junior High,10/12/09,1116,557,559,2056 SUSQUEHANNA RD,ABINGTON,19001,Montgomery,(215) 884-4700,(215) 517-2894,,Amy Sichel,AmySichel@abington.k12.pa.us,,Mark Pellico,MarkPellico@abington.k12.pa.us,,Todd M. Vaccaro,vacctm@abington.k12.pa.us,,X,X,,,X,,,X,,X,,X,X,,,X,X,,,,X,X,,,,X,,X,,X,,X,X,,40.116503,-75.1280759,"2056 Susquehanna Road, Abington, PA 19001, USA 2056 SUSQUEHANNA RD ABINGTON PA 19001",,
Abraham Lincoln High School,Philadelphia,12,Public,Senior High,10/28/11,1409,661,748,3201 RYAN AVENUE,PHILADELPHIA,19136,Philadelphia,(215) 335-5653,(215) 335-5997,,,,,Donald Anticoli,djanticoli@philasd.org,,,,,X,X,X,,X,X,,,,X,X,X,X,X,,X,X,X,,,X,X,X,,,,,,,X,X,X,X,,40.0437372,-75.04261020000001,"3201 Ryan Avenue, Philadelphia, PA 19136, USA 3201 RYAN AVENUE PHILADELPHIA PA 19136",,
Abraham Lincoln Middle School,Lancaster,3,Public,Junior High,10/14/11,664,343,321,1001 LEHIGH AVE,LANCASTER,17602,Lancaster,(717) 291-6187,(717) 291-2109,,Pedro Rivera,parivera@lancaster.k12.pa.us,,Josiah Keene,jjkeene@lancaster.k12.pa.us,,Michael Peirce,michaelpeirce@lancaster.k12.pa.us,,,X,,X,X,,,,,X,,,X,,,X,X,,,X,X,,,,,,,X,,,,X,,,40.0463925,-76.28545489999999,"1001 Lehigh Avenue, Lancaster, PA 17602, USA 1001 LEHIGH AVE LANCASTER PA 17602",,
Abraxas I / Arlene Lissner High School,,9,Private,Senior High,10/4/11,118,4,114,Post Office Box 59,Marienville,16239,Forest,(814) 927-6615,(814) 927-8836,,,,,Roland Reitz,rreitz@abraxasyfs.com,,James Michael Scarantine,jscarantine@abraxasyfs.com,,,,,,,,,,,,,,,,,,,,,,,,,,,,,,,,,,,,41.46914719999999,-79.12350129999999,"Marienville, PA 16239, USA Post Office Box 59 Marienville PA 16239",,
Academy at Palumbo High School,Philadelphia,12,Public,Senior High,10/28/11,524,322,202,1100 Catherine St,Philadelphia,19147,Philadelphia,(215) 351-7618,(215) 351-7685,,,,,Adrienne W Chew,awallacechew@philasd.org,,Erik Goldstein,ejgoldstein@phila.k12.pa.us,,,X,,,,,,,,X,,,X,X,,X,X,,,,,,,,,,,,,,,X,X,,39.9399626,-75.1611034,"1100 Catharine Street, Philadelphia, PA 19147, USA 1100 Catherine St Philadelphia PA 19147",,
Academy Park High School,Southeast Delco,1,Public,Senior High,10/13/11,872,430,442,300 CALCON HOOK RD,SHARON HILL,19079,Delaware,(610) 522-4330,(610) 522-4335,,Stephen Butz,sbutz@sedelco.org,,Edward Small,esmall@sedelco.org,,Paul Davis,pdavis@sedelco.org,,X,X,,X,X,,X,,,X,,X,X,,,X,X,,X,X,X,X,,,X,X,,,,X,,X,X,,39.9085818,-75.2677521,"300 Calcon Hook Road, Sharon Hill, PA 19079, USA 300 CALCON HOOK RD SHARON HILL PA 19079",,
Academy Park Middle Schools,Southeast Delco,1,Public,Junior High,10/12/09,1114,536,578,801 ASHLAND AVE,GLENOLDEN,19036,Delaware,(610) 522-4375,(610) 522-9065,,Stephen Butz,sbutz@sedelco.org,,Darle Glantz,dglantz@sedelco.org,,Paul M Davis,,,X,X,,,X,,,,,X,,,X,,,X,X,,,,X,,,,,,,,,X,,X,X,,39.9088121,-75.2966346,"801 West Ashland Avenue, Glenolden, PA 19036, USA 801 ASHLAND AVE GLENOLDEN PA 19036",,
Adventure Learning Center,,11,Private,Senior High,11/8/11,57,0,57,Suite #1,JIM THORPE,18229,Carbon,(484) 239-2950,(570) 325-4788,,,,,Sam Mazzatesta,smazzatesta@youthservicesagency.org,,,,,,,,,,,,,,,,,,,,,,,,,,,,,,,,,,,,,,,40.8771069,-75.75366079999998,"1st Lane, Jim Thorpe, PA 18229, USA Suite #1 JIM THORPE PA 18229",,
Albert Gallatin High School,Albert Gallatin Area,7,Public,Senior High,10/4/11,922,432,490,1119 TOWNSHIP DRIVE,UNIONTOWN,15401,Fayette,(724) 564-2024,(724) 564-0557,,Carl Bezjak,carl.bezjak@albertgallatin.k12.pa.us,,Jason Hutchinson,jason.hutchinson@agasd.org,,Duane Dupont,duane.dupont@albertgallatin.k12.pa.us,,X,X,,X,X,X,,,,X,,,X,,,X,X,,,X,,,,,,,,X,,X,,X,X,,39.8320502,-79.78350369999998,"1119 T502, Uniontown, PA 15401, USA 1119 TOWNSHIP DRIVE UNIONTOWN PA 15401",,
Albert Gallatin North Middle School,Albert Gallatin Area,7,Public,Junior High,10/10/11,472,221,251,113 COLLEGE AVE,MCCLELLANDTOWN,15458,Fayette,(724) 737-5423,(724) 737-5312,,Carl Bezjak,cbezjak@albertgallatin.k12.pa.us,,James Patitucci,jpatitucci@albertgallatin.k12.pa.us,,Joe Embacher,joseph.embacher@albertgallatin.k12.pa.us,,,X,,,X,,,,,X,,,X,,,X,X,,,X,,,,,X,,,X,,X,,,,,39.889173,-79.87270819999998,"113 College Avenue, McClellandtown, PA 15458, USA 113 COLLEGE AVE MCCLELLANDTOWN PA 15458",,
Albert Gallatin South Middle School,Albert Gallatin Area,7,Public,Junior High,10/15/09,392,185,207,224 NEW GENEVA RD,POINT MARION,15474,Fayette,(724) 725-5241,(724) 725-5242,,Walter Vincinelly,,,Ralph Garcia,,,Mark Dunham,,,,X,,X,X,,,,,X,,,X,,,X,X,,,X,,,,,,,,X,,X,,X,,,39.778354,-79.918744,"224 New Geneva Road, Point Marion, PA 15474, USA 224 NEW GENEVA RD POINT MARION PA 15474",,
Aliquippa Junior/Senior High School,City Of Aliquippa,7,Public,Junior High,10/3/11,297,129,168,100 HARDING AVE,ALIQUIPPA,15001,Beaver,(724) 857-7515,(724) 857-7560,http://www.aliquippa.k12.pa.us,David A Wytiaz,dwytiaz@quipsd.org,,Alvin B Gipson,agipson@quipsd.org,,Michael Zmijanac,mzmijanac@quipsd.org,,X,X,,,X,,,,,,,,X,,,,X,,,,,,,,,,,,,X,,X,X,,40.5814128,-80.25793469999996,"100 Harding Avenue, Aliquippa, PA 15001, USA 100 HARDING AVE ALIQUIPPA PA 15001",,
Aliquippa Senior High School,City Of Aliquippa,7,Public,Senior High,10/4/11,245,115,130,100 HARDING AVE,ALIQUIPPA,15001,Beaver,(724) 857-7515,(724) 857-7560,http://WWW.ALIQUIPPA.K12.PA.US,David A Wytiaz,dwytiaz@quips.org,,Alvin B Gipson,agipson@quipsd.org,,Michael Zmijanac,mzmijanac@quipsd.org,,X,X,,,X,,,,,,,,X,,,,X,,,,,,,,,,,,,X,,X,X,,40.5814128,-80.25793469999996,"100 Harding Avenue, Aliquippa, PA 15001, USA 100 HARDING AVE ALIQUIPPA PA 15001",,
Allegheny Clarion Valley High School,Allegheny Clarion Valley,9,Public,Senior High,10/17/11,225,120,105,762 Route 58,FOXBURG,16036,Clarion,(724) 659-4661,(724) 659-4774,,David Mcdeavitt,davidm@acvsd.org,,William Jordan,bill.jordan@acvsd.org,,Ronald Kerlin,ron.kerlin@acvsd.org,,X,X,,X,X,X,,,,,,,X,,,,X,,X,X,,,X,,,,,,,X,,X,X,,41.1361119,-79.70461699999998,"762 Pennsylvania 58, Parker, PA 16049, USA 762 Route 58 FOXBURG PA 16036",,
Allegheny Clarion Valley Junior High School,Allegheny Clarion Valley,9,Public,Junior High,10/17/11,185,89,96,762 ROUTE 58 EAST,FOXBURG,16036,Clarion,(724) 659-4661,(724) 659-4774,,David Mcdeavitt,david.mcdeavitt@acvsd.org,,William Jordan,bill.jordan@acvsd.org,,Ron Kerlin,ron.kerlin@acvsd.org,,,X,,X,X,X,,,,,,,X,,,,X,,,X,,,X,,,,,,,,,X,X,,41.1361119,-79.70461699999998,"762 Pennsylvania 58, Parker, PA 16049, USA 762 ROUTE 58 EAST FOXBURG PA 16036",,
Allen Middle School,West Shore,3,Public,Junior High,10/12/09,440,207,233,4225 GETTYSBURG RD,CAMP HILL,17011,Cumberland,(717) 901-9552,(717) 901-8201,http://www.wssd.k12.pa.us,Jemry Small,jsmall@wssd.k12.pa.us,,Robert Ackell,rackell@wssd.k12.pa.us,,Ken Roseberry,kroseberry@wssd.k12.pa.us,,,X,,X,X,,,,,X,,,X,,,X,X,,,X,X,,,,,,,,,,,X,X,,40.2175841,-76.94948669999997,"4225 Gettysburg Road, Camp Hill, PA 17011, USA 4225 GETTYSBURG RD CAMP HILL PA 17011",,
Allentown Cent Catholic Junior High School,,11,Private,Junior High,10/14/11,900,451,449,301 N 4TH ST,ALLENTOWN,18102,Lehigh,(610) 437-4601,(610) 437-6760,http://www.acchs.info,Philip Fromuth,,,Dennis Nemes,,,Mike Kopp,,,,,,,X,,,,,,,,,,,X,,,,,X,,,,,,,,,X,,,,,40.608561,-75.467217,"301 North 4th Street, Allentown, PA 18102, USA 301 N 4TH ST ALLENTOWN PA 18102",,
Allentown Central Catholic High School,,11,Private,Senior High,10/12/11,554,283,271,301 N 4TH ST,ALLENTOWN,18102,Lehigh,(610) 437-4601,(610) 437-6760,http://www.acchs.info,Philip J Fromuth,,,Dennis Nemes,dnemes@acchs.info,,Mike Kopp,mkoppcchs@gmail.com,,X,X,,X,X,X,X,X,,X,X,X,X,,,X,X,,X,X,X,X,X,,X,X,,X,,X,X,X,X,,40.608561,-75.467217,"301 North 4th Street, Allentown, PA 18102, USA 301 N 4TH ST ALLENTOWN PA 18102",,
Altoona  Area Junior High School,Altoona Area,6,Public,Junior High,10/3/11,1179,574,605,1400 Seventh Avenue,Altoona,16602,Blair,(814) 381-7500,(814) 381-7501,,,,,Lori H. Mangan,lmangan@aasdcat.com,,,,,,X,,,X,,,,,X,,,X,,,X,X,,,,,,,,,,,X,,X,,X,,,40.5109431,-78.3988359,"1400 7th Avenue, Altoona, PA 16602, USA 1400 Seventh Avenue Altoona PA 16602",,
Altoona Area High School,Altoona Area,6,Public,Senior High,1/19/12,1719,827,892,1415 6TH AVENUE,ALTOONA,16602,Blair,(814) 946-8289,(814) 946-8272,,Thomas B Otto,totto@aasdcat.com,,Patricia L Burlingame,pburlingame@aasdcat.com,,Phil Riccio,priccio@aasdcat.com,,X,X,,X,X,X,X,,,X,X,X,X,X,,X,X,,,X,,X,,X,X,,,X,,X,X,X,X,,40.5101921,-78.39811450000002,"1415 West 6th Avenue, Altoona, PA 16602, USA 1415 6TH AVENUE ALTOONA PA 16602",,
Ambridge Area High School,Ambridge Area,7,Public,Senior High,10/17/11,747,320,427,909 DUSS AVE,AMBRIDGE,15003,Beaver,(724) 266-2833,(724) 266-5056,,Cynthia Zurchin,czurchin@ambridge.k12.pa.us,,Alan R Fritz,afritz@ambridge.k12.pa.us,,Shawn Besong,sbesong@ambridge.k12.pa.us,,X,X,X,X,X,X,,,,X,,X,X,X,,X,X,X,,X,,X,X,,,,,X,,X,,X,X,,40.5913672,-80.22582840000001,"909 Duss Avenue, Ambridge, PA 15003, USA 909 DUSS AVE AMBRIDGE PA 15003",,
Ambridge Area Junior High School,Ambridge Area,7,Public,Junior High,10/17/11,650,301,349,401 FIRST STREET,FREEDOM,15042,Beaver,(724) 266-2833,(724) 869-5321,,Cynthia Zurchin,eweischedel@ambridge.k12.pa.us,,Janice Zupsic,jzupsic@ambridge.k12.pa.us,,Shawn Besong,sbesong@ambridge.k12.pa.us,,X,X,,X,X,,,,,X,,,X,X,,X,X,,,X,,,,,,,,X,,X,,X,X,,40.6681314,-80.21249390000003,"401 1st Street, Freedom, PA 15042, USA 401 FIRST STREET FREEDOM PA 15042",,
Andrew W Mellon Middle School,Mount Lebanon,7,Public,Junior High,10/14/11,638,310,328,11 CASTLE SHANNON BLVD,PITTSBURGH,15228,Allegheny,(412) 344-2122,(412) 344-0590,,Timothy Steinhauer,TSTEINHAUER@MTLSD.NET,,Chris Wolfson,CWOLFSON@MTLSD.NET,,John Grogan,JGROGAN@MTLSD.NET,,,X,,X,X,,,,,,X,,X,,,X,X,,,X,,,,,,,,,,,X,X,X,,40.3773876,-80.04527569999999,"11 Castle Shannon Boulevard, Pittsburgh, PA 15228, USA 11 CASTLE SHANNON BLVD PITTSBURGH PA 15228",,
Annville Cleona High School,Annville Cleona,3,Public,Senior High,10/17/11,419,202,217,500 S WHITE OAK ST,ANNVILLE,17003,Lebanon,(717) 867-7700,(717) 867-7712,http://www.acschools.org,Steven Houser,shouser@acschools.org,,David Wright,dwright@acschools.org,,Tommy Long,tlong@acschools.org,,X,X,,X,X,X,,,,X,,X,X,,,X,X,,,X,X,X,X,,,,,X,,X,,X,,,40.32364,-76.50787200000002,"500 South White Oak Street, Annville, PA 17003, USA 500 S WHITE OAK ST ANNVILLE PA 17003",,
Annville Cleona Middle School,Annville Cleona,3,Public,Junior High,10/17/11,404,194,210,500 S WHITE OAK ST,ANNVILLE,17003,Lebanon,(717) 867-7700,(717) 867-7712,http://www.acschools.org,Steven Houser,shouser@acschools.org,,David Wright,dwright@acschools.org,,Tommy Long,tlong@acschools.org,,,X,,X,X,,,,,,,,X,,,X,X,,,X,X,,,,,,,,,,,X,,,40.32364,-76.50787200000002,"500 South White Oak Street, Annville, PA 17003, USA 500 S WHITE OAK ST ANNVILLE PA 17003",,
Antietam High School,Antietam,3,Public,Senior High,10/7/11,241,113,128,100 ANTIETAM RD,READING,19606,Berks,(610) 779-3545,(610) 779-0378,http://www.antietamsd.org,Lawrence Mayes,lmayes@antietamsd.org,,Dr. felice Stern,fstern@antietamsd.org,,Tim Kier,tkier@antietamsd.org,,X,X,X,,,,,,,X,,,,X,,,X,X,,,,X,,,,,,X,,X,,,X,,40.3479476,-75.86773099999999,"100 Antietam Road, Reading, PA 19606, USA 100 ANTIETAM RD READING PA 19606",,
Antietam Middle School,Antietam,3,Public,Junior High,10/7/11,256,128,128,100 ANTIETAM RD,READING,19606,Berks,(610) 779-3545,(610) 779-0378,http://www.antietamsd.org,Lawrence Mayes,lmayes@antietamsd.org,,Felise Stern,fstern@antietamsd.org,,Tim Kier,tkier@antietamsd.org,,X,X,,,,,,,,X,,,,,,,X,,,,,,,,,,,,,X,,,X,,40.3479476,-75.86773099999999,"100 Antietam Road, Reading, PA 19606, USA 100 ANTIETAM RD READING PA 19606",,
Apollo Ridge High School,Apollo-Ridge,7,Public,Senior High,10/14/11,376,194,182,1825 STATE ROUTE 56,SPRING CHURCH,15686,Armstrong,(724) 478-6000,(724) 478-9775,,Matthew Curci,,,Clint Weimer,weimerc@apolloridge.com,,Raymond Bartha,raybartha@apolloridge.com,,X,X,,,X,,,,,,,,X,,,,X,,,,,,,,,,,,,X,,X,X,,40.604542,-79.47542499999997,"1825 Pennsylvania 56, Spring Church, PA 15686, USA 1825 STATE ROUTE 56 SPRING CHURCH PA 15686",,
Apollo Ridge Middle School,Apollo-Ridge,7,Public,Junior High,10/6/11,351,174,177,1829 STATE RT 56,SPRING CHURCH,15686,Armstrong,(724) 478-6000,(724) 478-3730,http://www.apolloridge.com,Matthew Curci,curcim@apolloridge.com,,Travis Barta,bartat@apolloridge.com,,Raymond Bartha,raybartha@apolloridge.com,,,X,,,X,,,,,,,,,,,,X,,,,,,,,,,,,,,,,X,,40.604542,-79.47542499999997,"1829 Pennsylvania 56, Spring Church, PA 15686, USA 1829 STATE RT 56 SPRING CHURCH PA 15686",,
Aquinas Academy of Pittsburgh,,7,Private,Senior High,10/11/11,60,30,30,2308 WEST HARDIES RD,GIBSONIA,15044,Allegheny,(724) 444-0722,(724) 444-0750,http://www.aquinasacademy-pittsburgh.org,,,,Leslie Mitros,mitros@aquinas.pvt.k12.pa.us,,James Richthammer,richthammer@aquinas.pvt.k12.pa.us,,,X,,,,,,X,,X,,,,,,,,,,,X,,,,,,,,,,,,,,40.597757,-79.967603,"2308 West Hardies Road, Gibsonia, PA 15044, USA 2308 WEST HARDIES RD GIBSONIA PA 15044",,
Archbishop Carroll High School,,12,Private,Senior High,10/3/11,666,395,271,211 MATSON FORD ROAD,RADNOR,19087,Chester,(610) 688-7610,(610) 902-0183,,,,,Joseph L Denelsbeck,jdenelsbeck@jcarroll.org,,James Corkery,jcorkery@jcarroll.org,,X,X,,X,X,X,X,X,,X,X,X,X,X,,X,X,,X,X,X,X,,,X,X,,X,,X,X,X,X,,40.0506717,-75.3505973,"211 Matsonford Road, Wayne, PA 19087, USA 211 MATSON FORD ROAD RADNOR PA 19087",,
Archbishop Ryan High School,,12,Private,Senior High,10/5/11,1197,641,556,11201 ACADEMY ROAD,PHILADELPHIA,19154,Philadelphia,(215) 637-1800,(215) 637-8833,,,,,James D. Meredith,jmeredith@archbishopryan.com,,George J Todt,athletics@archbishopryan.com,,X,X,X,X,X,X,X,X,,X,X,X,X,X,,X,X,X,,X,X,X,,,X,X,,X,,X,X,X,X,,40.085783,-74.9873718,"11201 Academy Road, Philadelphia, PA 19154, USA 11201 ACADEMY ROAD PHILADELPHIA PA 19154",,
Archbishop Wood High School,,12,Private,Senior High,10/6/11,786,379,407,655 YORK ROAD,WARMINSTER,18974,Bucks,(215) 672-5050,(215) 672-9572,,,,,Mary Harkins,mharkins@archwood.org,,Joe Sette,settej@hotmail.com,,X,X,X,X,X,X,X,X,,X,X,X,X,X,,X,X,X,,X,X,X,X,,X,X,,X,,X,X,X,X,,40.20760569999999,-75.09960190000004,"655 York Road, Warminster, PA 18974, USA 655 YORK ROAD WARMINSTER PA 18974",,
Arcola Intermediate School,Methacton,1,Public,Junior High,10/15/09,1253,626,627,4001-A EAGLEVILLE RD,EAGLEVILLE,19403,Montgomery,(610) 489-5054,(610) 489-5052,http://www.methacton.org,Jeffrey A. Miller,JMiller@Methacton.org,,Lucretia Page,,,Paul Spiewak,pspiewak@methacton.org,,X,X,,X,X,,,,,X,,X,X,,,X,X,,,X,X,X,,,,X,,X,,X,,X,,,40.1484621,-75.42442410000001,"4001 Eagleville Road, Trooper, PA 19403, USA 4001-A EAGLEVILLE RD EAGLEVILLE PA 19403",,
Arise Academy Charter School,Philadelphia,12,Charter,Senior High,11/4/11,127,64,63,2116 E. Haines St.,Philadelphia,19138,Philadelphia,(215) 224-9400,,,,,,Taneisha Taili Spall,tspall@ariseacademychs.org,,,,,,X,,,,,,,,,,,,,,,X,,,,,,,,,,,,,,,,,,40.0563251,-75.15669379999997,"2116 East Haines Street, Philadelphia, PA 19138, USA 2116 E. Haines St. Philadelphia PA 19138",,
Arts Academy of Benjamin Rush,Philadelphia,12,Public,Senior High,10/28/11,396,291,105,11081 Knights Road,Philadelphia,19154,Philadelphia,(215) 281-2603,(215) 281-2674,,,,,Jessica Brown,jebrown@philasd.org,,Todd Corabi,tcorabi@philasd.org,,X,X,,,,,,,,,,,,,,,X,,,,,,,,,,,X,,X,,,X,,40.0837829,-74.97420929999998,"11081 Knights Road, Philadelphia, PA 19154, USA 11081 Knights Road Philadelphia PA 19154",,
Athens Area High School,Athens Area,4,Public,Senior High,10/7/11,536,285,251,401 WEST FREDERICK ST,ATHENS,18810,Bradford,(570) 888-7766,(570) 888-4038,http://www.athensasd.k12.pa.us,Diane Place,dplace@athensasd.org,,Beth Schulze,bschulze@athensasd.org,,James Stivason,jstivason@athensasd.org,,X,X,,X,X,X,,,,X,X,,X,,,X,X,,,X,,,X,,,,,X,,X,X,X,X,,41.9710496,-76.52712059999999,"401 West Frederick Street, Athens, PA 18810, USA 401 WEST FREDERICK ST ATHENS PA 18810",,
Austin Area High School,Austin Area,9,Public,Senior High,10/5/11,60,24,36,138 COSTELLO AVE,AUSTIN,16720,Potter,(814) 647-8603,(814) 647-8869,,Kimberly Rees,krees@austinsd.net,,Jerome Sasala,jerome.sasala@austinsd.net,,Kathy Jeffers,kjeffers@austinsd.net,,,X,,,,,,,,,,,,,,,X,,,,,,,,,,,,,X,,,X,,41.6266912,-78.08925679999999,"Costello Avenue, Austin, PA 16720, USA 138 COSTELLO AVE AUSTIN PA 16720",,
Austin Area Junior High School,Austin Area,9,Public,Junior High,10/5/11,40,19,21,138 COSTELLO AVE,AUSTIN,16720,Potter,(814) 647-8603,(814) 647-8869,http://austinsd.cpm,Kimberly Rees,krees@austinsd.net,,Jerome Sasala,jerome.sasala@austinsd.net,,Kathy Jeffers,kjeffers@austinsd.net,,,X,,,,,,,,,,,,,,,X,,,,,,,,,,,,,,,,X,,41.6266912,-78.08925679999999,"Costello Avenue, Austin, PA 16720, USA 138 COSTELLO AVE AUSTIN PA 16720",,
Avella Area High School,Avella Area,7,Public,Senior High,10/26/11,161,72,89,1000 AVELLA RD,AVELLA,15312,Washington,(724) 356-2216,(724) 356-7905,http://avella.hky.com,Janell Logue-belden,logue-beldenj@avella.k12.pa.us,,Thomas G. Graham,grahamt@avella.k12.pa.us,,Jason Fogg,foggj@avella.k12.pa.us,,X,X,,X,X,,,,X,,,,X,,,X,X,,,X,,X,,,,,X,,,X,,X,X,,40.2724167,-80.41987970000002,"1000 Avella Road, Avella, PA 15312, USA 1000 AVELLA RD AVELLA PA 15312",,
Avella Junior High School,Avella Area,7,Public,Junior High,10/6/11,137,65,72,1000 AVELLA ROAD,AVELLA,15312,Washington,(724) 356-2216,(724) 356-7905,http:avella.hky.com,Janell Logue-belden,logue-beldenj@avella.k12.pa.us,,Thomas G. Graham,grahamt@avella.k12.pa.us,,Jason Fogg,foggj@avella.k12.pa.us,,,X,,,,,,,,,,,,,,,X,,,,,,,,,,,,,,,,X,,40.2724167,-80.41987970000002,"1000 Avella Road, Avella, PA 15312, USA 1000 AVELLA ROAD AVELLA PA 15312",,
Avon Grove High School,Avon Grove,1,Public,Senior High,1/9/12,1348,661,687,257 STATE ROAD,WEST GROVE,19390,Chester,(610) 869-2446,(610) 869-4511,,M. christopher Marchese,mmarchese@avongrove.org,,Thomas M. Alexander,talexander@avongrove.org,,Robert L. Devers,rdevers@avongrove.org,,X,X,,X,X,X,X,X,,X,X,X,X,X,,X,X,,X,X,X,X,X,,X,X,,X,,X,X,X,X,,39.8158079,-75.81386900000001,"257 State Road, West Grove, PA 19390, USA 257 STATE ROAD WEST GROVE PA 19390",,
Avonworth High School,Avonworth,7,Public,Senior High,10/3/11,315,151,164,304 JOSEPHS LN,PITTSBURGH,15237,Allegheny,(412) 366-6360,(412) 366-7603,http://www.avonworth.k12.pa.us,Thomas Ralston,tralston@avonworth.k12.pa.us,,Kenneth L Lockette,klockette@avonworth.k12.pa.us,,Tim Giel,tgiel@avonworth.k12.pa.us,,X,X,,X,X,,,,,X,,,X,,,X,X,,,X,,,,,,,,X,,X,,X,X,,40.523808,-80.07199830000002,"304 Josephs Lane, Pittsburgh, PA 15237, USA 304 JOSEPHS LN PITTSBURGH PA 15237",,
Avonworth Middle School,Avonworth,7,Public,Junior High,10/19/09,308,146,162,256 JOSEPHS LN,PITTSBURGH,15237,Allegheny,(412) 366-9650,(412) 358-9621,http://www.avonworth.k12.pa.us,Tom Ralston,tralston@avonworth.k12.pa.us,,Michael Hall,mhall@avonworth.k12.pa.us,,Tim Giel,tgeil@avonworth.k12.pa.us,,X,X,,,X,,,,,X,X,,,,,X,X,,,,,,,,,,,,,X,X,,X,,40.5309243,-80.07825559999998,"256 Josephs Lane, Pittsburgh, PA 15237, USA 256 JOSEPHS LN PITTSBURGH PA 15237",,
Bala Cynwyd Middle School,Lower Merion,1,Public,Junior High,10/31/11,866,447,419,510 BRYN MAWR AVE,BALA CYNWYD,19004,Montgomery,(610) 645-1480,(610) 664-2798,http://BALA CYNWYD MIDDLE SCHOOL@lmsd.org,,,,Margery J Andersen,andersm@lmsd.org,,Denny Dool,doold@lmsd.org,,X,X,,,X,,,X,,X,,X,X,,,X,X,,,,X,X,,,,X,,X,,X,,X,X,,40.01330129999999,-75.24311449999999,"510 Bryn Mawr Avenue, Bala Cynwyd, PA 19004, USA 510 BRYN MAWR AVE BALA CYNWYD PA 19004",,
Bald Eagle Area High School,Bald Eagle Area,6,Public,Senior High,10/5/11,413,182,231,751 S EAGLE VALLEY RD,WINGATE,16823-4799,Centre,(814) 355-4868,(814) 355-7197,http://www.beasd.org,Jeffrey Miles,jmiles@beasd.org,,David L Reichelderfer,dreichelderfer@beasd.org,,Douglas G Dyke,ddyke@beasd.org,,X,X,,X,X,,X,,,X,,,X,,,X,X,,X,X,,,,,X,,,X,,X,,X,X,,40.9402862,-77.8008547,"751 South Eagle Valley Road, Bellefonte, PA 16823, USA 751 S EAGLE VALLEY RD WINGATE PA 16823-4799",,
Bald Eagle Area Junior High School,Bald Eagle Area,6,Public,Junior High,10/5/11,434,206,228,751 S EAGLE VALLEY RD,WINGATE,16823,Centre,(814) 355-4868,(814) 355-7197,http://www.beasd.org,Jeffrey Miles,jmiles@beasd.org,,Dave Reichelderfer,dreichelderfer@beasd.org,,Douglas G Dyke,ddyke@beasd.org,,,X,,,X,,,,,X,,,X,,,X,X,,X,,,,,,,,,X,,X,,X,,,40.9402862,-77.8008547,"751 South Eagle Valley Road, Bellefonte, PA 16823, USA 751 S EAGLE VALLEY RD WINGATE PA 16823",,
Baldwin High School,Baldwin Whitehall,7,Public,Senior High,10/10/11,1165,559,606,4653 CLAIRTON BLVD,PITTSBURGH,15236,Allegheny,(412) 885-7515,(412) 885-7831,http://BWSCHOOLS.NET,Randal A. Lutz,rlutz@bwschools.net,,Walter A Graves,wgraves@bwschools.net,,Vincent M Sortino,vsortino@bwschools.net,,X,X,X,X,X,X,X,X,,X,X,X,X,X,X,X,X,X,X,X,,X,,X,X,X,,X,,X,X,X,X,X,40.3557265,-79.97854339999998,"4653 Clairton Boulevard, Pittsburgh, PA 15236, USA 4653 CLAIRTON BLVD PITTSBURGH PA 15236",,
Bangor Area High School,Bangor Area,11,Public,Senior High,10/14/11,951,457,494,187 FIVE POINTS RICHMOND RD,BANGOR,18013,Northampton,(610) 599-7017,(610) 599-7034,http://www.bangork12.pa.us,Frank Defelice,defelice@bangorsd.org,,Tamara Gary,garyta@bangorsd.org,,Bron Holland,hollanbr@bangorsd.org,,X,X,,X,X,X,,,,X,X,X,X,,,X,X,,X,X,X,X,X,,,,,X,,X,X,X,,,40.8809859,-75.15126699999996,"187 5 Points Richmond Road, Bangor, PA 18013, USA 187 FIVE POINTS RICHMOND RD BANGOR PA 18013",,
Bangor Area Middle School,Bangor Area,11,Public,Junior High,10/20/09,947,452,495,401 5PTS RICHMOND RD,BANGOR,18013,Northampton,(610) 599-7012,(610) 599-7045,http://www.bangor.k12.pa.us,Frank Defelice,DeFeliceF@bangorslaters.com,,Allison Tucker,tuckera@bangorsd.org,,Bron F. Holland,Hollanbr@bangorsd.org,,,X,,X,X,,,,,X,,,X,,,X,X,,,X,X,,,,,,,X,,,,X,,,40.8464767,-75.14320570000001,"401 5 Points Richmond Road, Bangor, PA 18013, USA 401 5PTS RICHMOND RD BANGOR PA 18013",,
Bartram High School,Philadelphia,12,Public,Senior High,10/28/11,754,342,412,2401 S 67TH STREET,PHILADELPHIA,19142,Philadelphia,(215) 492-6450,(215) 492-6117,,,,,Kim Collins,kcollinsgrier@philasd.org,,James Chapman,jchapman2@philasd.org,,X,X,X,X,X,,,,,X,,X,X,,,,X,X,X,X,,X,,,,,,,,X,,X,,,39.9216617,-75.23388469999998,"2401 South 67th Street, Philadelphia, PA 19142, USA 2401 S 67TH STREET PHILADELPHIA PA 19142",,
Bear Creek Community Charter School,Wilkes-Barre Area,2,Charter,Junior High,10/2/09,139,73,66,2000 BEAR CREEK BLVD,WILKES BARRE,18702,Luzerne,(570) 820-4070,(570) 270-6149,,,,,Brian Dugas,brian.dugas@bearcreekschool.com,,Tony Prudente,anthony.prudente@bearcreekschool.com,,,,,,,,,,,X,,,,,,,,,,,,,,,,,,X,,,,,,,41.2219685,-75.80059770000003,"2000 Bear Creek Boulevard, Wilkes-Barre, PA 18702, USA 2000 BEAR CREEK BLVD WILKES BARRE PA 18702",,
Beaty Warren Middle School,Warren County,10,Public,Junior High,10/11/11,564,259,305,2 East 3RD AVE,WARREN,16365,Warren,(814) 723-5200,(814) 723-8861,,Brandon Hufnagel,,,Rhonda Decker,deckerr@wcsdpa.org,,Rick Gignac,gignacr@wcsdpa.org,,,,,X,X,,,,,,,,X,,,X,X,,,X,,,,,,,,,,,,X,X,,41.84742,-79.13871999999998,"2 East 3rd Avenue, Warren, PA 16365, USA 2 East 3RD AVE WARREN PA 16365",,
Beaver Area High School,Beaver Area,7,Public,Senior High,10/13/11,484,227,257,1 GYPSY GLEN RD,BEAVER,15009,Beaver,(724) 774-0250,(724) 774-3926,http://www.basd.k12.pa.us,John Hansen,hansen@basd.k12.pa.us,,David Zupsic,zupsicd@basd.k12.pa.us,,Pat Mcdanel,mcdanelp@basd.k12.pa.us,,X,X,,X,X,X,,,,X,X,X,X,,,X,X,,,X,,X,,,,,,X,,X,X,X,X,,40.7078049,-80.33727820000001,"Gypsy Glen Road, Beaver, PA 15009, USA 1 GYPSY GLEN RD BEAVER PA 15009",,
Beaver Area Middle School,Beaver Area,7,Public,Junior High,10/12/11,488,248,240,1 GYPSY GLEN RD,BEAVER,15009,Beaver,(724) 774-0250,(724) 773-8103,http://www.basd.k12.pa.us,John Hansen,hansen@basd.k12.pa.us,,Jeff Beltz,Beltzj@basd.k12.pa.us,,Pat Mcdanel,mcdanelp@basd.k12.pa.us,,,X,,X,X,,,,,X,,,X,,,,X,,,X,,,,,,,,X,,,,X,X,,40.7078049,-80.33727820000001,"Gypsy Glen Road, Beaver, PA 15009, USA 1 GYPSY GLEN RD BEAVER PA 15009",,
Beaver County Christian High School,,7,Private,Senior High,10/21/11,59,31,28,510 37th Street,Beaver Falls,15010,Beaver,(724) 843-3002,(724) 843-5224,,Mary Lou Capan,,,Rob Rostoni,bccs.mc@comcast.net,,Alan Sumner,bccs.mc@comcast.net,,,X,,,,,,,,X,,,,X,,,X,,,,,,,,,,,,,,,,X,,40.77847999999999,-80.326458,"510 37th Street, Beaver Falls, PA 15010, USA 510 37th Street Beaver Falls PA 15010",,
Beaver Falls Area High School,Big Beaver Falls Area,7,Public,Senior High,10/14/11,394,200,194,1701 8TH AVE,BEAVER FALLS,15010,Beaver,(724) 843-7470,(724) 843-0892,http://tigerweb.k12.pa.us,Dr Donna Nugent,nugentd@tigerweb.k12.pa.us,,Mary beth Leeman,leemanm@tigerweb.k12.pa.us,,James A Carbone,carbonej@tigerweb.k12.pa.us,,X,X,X,X,X,X,,,,,X,X,X,,,,X,X,,X,,X,,,,,,,,X,X,X,X,,40.758148,-80.321324,"1701 8th Avenue, Beaver Falls, PA 15010, USA 1701 8TH AVE BEAVER FALLS PA 15010",,
Beaver Falls Area Middle School,Big Beaver Falls Area,7,Public,Junior High,10/14/11,371,175,196,1601 8TH AVENUE,BEAVER FALLS,15010,Beaver,(724) 846-5470,(724) 846-2579,,Donna Nugent,nugentd@tigerweb.k12.pa.us,,Thomas House,,,Jim Carbone,,,X,X,,X,X,,,,,,,,X,,,,X,,,X,,,,,,,,,,,,X,X,,40.75735299999999,-80.32099970000002,"1601 8th Avenue, Beaver Falls, PA 15010, USA 1601 8TH AVENUE BEAVER FALLS PA 15010",,
Bedford High School,Bedford Area,5,Public,Senior High,10/4/11,480,225,255,330 E JOHN ST,BEDFORD,15522,Bedford,(814) 623-4250,(814) 623-4265,,Allen Sell,sella@bedford.k12.pa.us,,Kyle Kane,kanek@bedford.k12.pa.us,,Dan Baker,bakerd@bedford.k12.pa.us,,X,X,,X,X,X,,,,X,,X,X,,,X,X,,,X,,X,,X,,,,X,,X,,X,X,,40.0160627,-78.49904240000001,"330 East John Street, Bedford, PA 15522, USA 330 E JOHN ST BEDFORD PA 15522",,
Bedford Middle School,Bedford Area,5,Public,Junior High,10/11/11,577,288,289,440 E WATSON ST,BEDFORD,15522,Bedford,(814) 623-4200,(814) 623-4214,http://hhp://bedford.k12.pa.us/,Allen Sell,sella@bedford.k12.pa.us,,Kevin Windows,,,Shane Bingman,bingmans@bedford.k12.pa.us,,X,X,,,X,,,,,,,,X,,,X,X,,,,,,,,,,,,,X,,X,X,,40.0146097,-78.49693719999999,"440 East Watson Street, Bedford, PA 15522, USA 440 E WATSON ST BEDFORD PA 15522",,
Belle Vernon Area High School,Belle Vernon Area,7,Public,Senior High,10/3/11,686,347,339,425 CREST AVE,BELLE VERNON,15012,Westmoreland,(724) 808-2500,(724) 930-7909,,John Wilkinson,john.wilkinson@bellevernonarea.net,,Jason Boone,jason.boone@bellevernonarea.net,,Jesse J Cramer,jesse.cramer@bellevernonarea.net,,X,X,,,X,X,,,,X,X,,X,,,X,X,,X,,,,X,,,,,X,,X,X,X,X,,40.178372,-79.81803500000001,"425 Crest Avenue, Belle Vernon, PA 15012, USA 425 CREST AVE BELLE VERNON PA 15012",,
Belle Vernon Area Middle School,Belle Vernon Area,7,Public,Junior High,10/3/11,640,296,344,500 Perry Avenue,BELLE VERNON,15012,Westmoreland,(724) 808-2500,(724) 930-6094,,John Wilkinson,john.wilkinson@bellevernonarea.net,,Gregory J Zborovancik,greg.zborovancik@bellevernonarea.net,,Jesse J Cramer,jesse.cramer@bellevernonarea.net,,,X,,,X,,,,,X,X,,,,,X,X,,,,,,,,,,,X,,X,X,,,,40.11486540000001,-79.83147180000003,"500 Perry Avenue, Belle Vernon, PA 15012, USA 500 Perry Avenue BELLE VERNON PA 15012",,
Bellefonte Area High School,Bellefonte Area,6,Public,Senior High,10/14/11,710,363,347,830 E BISHOP ST,BELLEFONTE,16823,Centre,(814) 355-4833,(814) 353-5320,http://www.basd.net,Cheryl Potteiger,cpotteig@basd.net,,Jennifer Brown,jbrown@basd.net,,Jonathan Clark,jclark@basd.net,,X,X,X,X,X,X,,X,,X,X,,X,,,X,X,X,X,X,,,X,X,,X,,X,,X,X,X,X,,40.9141112,-77.76143789999998,"830 East Bishop Street, Bellefonte, PA 16823, USA 830 E BISHOP ST BELLEFONTE PA 16823",,
Bellefonte Area Middle School,Bellefonte Area,6,Public,Junior High,10/21/11,688,312,376,100 N SCHOOL ST,BELLEFONTE,16823,Centre,(814) 355-5466,(814) 353-5350,http://www.basd.net/middle,Cheryl Potteiger,cpotteig@basd.net,,Sommer Garman,sgarman@basd.net,,Deb Moore,dmoore@basd.net,,,X,,,X,,,,,X,,,,,,X,X,,X,,,,,,,,,X,,X,,,,,40.9140361,-77.7619125,"100 North School Street, Bellefonte, PA 16823, USA 100 N SCHOOL ST BELLEFONTE PA 16823",,
Belleville Mennonite School,,6,Private,Senior High,10/19/11,38,16,22,4105 FRONT MOUNTAIN RD,BELLEVILLE,17004,Mifflin,(717) 935-2184,(717) 935-5641,http://www.bellevillemennoniteschool.org,Starla Fogleman,foglemansr@bmsprek12.org,,,,,Allyson Zook,zookaj@bmsprek12.org,,,X,,,,,,,,X,,,,,,,X,,,,X,,,,,,,,,,,,,,40.5906948,-77.72571529999999,"4105 Front Mountain Road, Belleville, PA 17004, USA 4105 FRONT MOUNTAIN RD BELLEVILLE PA 17004",,
Bellwood Antis High School,Bellwood Antis,6,Public,Senior High,10/3/11,342,163,179,400 MARTIN ST,BELLWOOD,16617,Blair,(814) 742-2274,(814) 742-9817,http://www.tuckahoe.blwd.k12.pa.us,G. Brian Toth,gbt@blwd.k12.pa.us,,Lisa A Hartsock,lah@blwd.k12.pa.us,,John Hayes,jrh@blwd.k12.pa.us,,X,X,,X,X,X,,,,,,,X,,,X,X,,,X,,,,,,,,,,X,,X,X,,40.59559040000001,-78.33121089999997,"400 Martin Street, Bellwood, PA 16617, USA 400 MARTIN ST BELLWOOD PA 16617",,
Bellwood Antis Middle School,Bellwood Antis,6,Public,Junior High,10/15/09,306,150,156,400 MARTIN ST,BELLWOOD,16617,Blair,(814) 742-2273,(814) 742-9817,,G. brian Toth,gbt@blwd.k12.pa.us,,Donald Wagner,dww@blwd.k12.pa.us,,John Hayes,,,,X,,,X,,,,,,,,,,,X,X,,,,,,,,,,,,,X,,,X,,40.59559040000001,-78.33121089999997,"400 Martin Street, Bellwood, PA 16617, USA 400 MARTIN ST BELLWOOD PA 16617",,
Benjamin Franklin High School,Philadelphia,12,Public,Senior High,10/28/11,462,205,257,550 NORTH BROAD STREET,PHILADELPHIA,19130,Philadelphia,(215) 299-4662,(215) 299-7285,,,,,Gregory Hailey,ghailey@philasd.org,,Dennis Sheedy,dsheedy@philasd.org,,X,X,,X,X,,X,,,X,,X,X,,,,X,,X,X,,,,,X,,,,,X,,X,X,,39.9637778,-75.16255509999996,"550 North Broad Street, Philadelphia, PA 19130, USA 550 NORTH BROAD STREET PHILADELPHIA PA 19130",,
Benjamin Franklin School,Uniontown Area,7,Public,Junior High,10/12/09,256,138,118,351 MORGANTOWN ST,UNIONTOWN,15401,Fayette,(412) 439-5020,(412) 439-5018,,Charles Machesky,,,Bob Manges,,,John Fortugna,,,,X,,X,X,,,,,X,X,,X,,,X,X,,,X,,,,,,,,X,,,X,X,X,,39.8916919,-79.7338911,"351 Morgantown Street, Uniontown, PA 15401, USA 351 MORGANTOWN ST UNIONTOWN PA 15401",,
Bensalem High School,Bensalem Township,1,Public,Senior High,10/17/11,1757,816,941,4319 HULMEVILLE RD,BENSALEM,19020,Bucks,(215) 750-2800 ext. 3040,(215) 244-2703,,David Baugh,DBaugh@bensalemsd.org,,Stephen Brandt,sbrandt@bensalemsd.org,,Geoffrey Per,gper@bensalemsd.org,,X,X,X,X,X,X,X,,,X,X,X,X,X,,X,X,X,X,X,X,X,X,,X,,,X,,X,X,X,X,,40.1145715,-74.93280849999996,"4319 Hulmeville Road, Bensalem, PA 19020, USA 4319 HULMEVILLE RD BENSALEM PA 19020",,
Benton Area High School,Benton Area,4,Public,Senior High,10/21/11,170,95,75,600 GREEN ACRES ROAD,BENTON,17814,Columbia,(570) 925-2651,(570) 925-0956,http://bentonsd.k12.pa.us,,,,Coleen Genovese,cgenovese@bentonsd.k12.pa.us,,William A. Pasukinis,bpasukinis@bentonsd.k12.pa.us,,X,X,,,,X,,,,X,,,,,,X,X,,,,X,,X,,,,,X,,X,,,,,41.2005979,-76.37874549999998,"600 Green Acres Road, Benton, PA 17814, USA 600 GREEN ACRES ROAD BENTON PA 17814",,
Benton Area Middle School,Benton Area,4,Public,Junior High,10/13/11,187,84,103,600 GREEN ACRES ROAD,BENTON,17814,Columbia,(570) 925-2651,(570) 925-0956,http://www.bentonsd.k12.pa.us,,,,Coleen Genovese,cgenovese@bentonsd.k12.pa.us,,William A. Pasukinis,bpasukinis@bentonsd.k12.pa.us,,,X,,,,,,,,X,,,,,,X,X,,,,X,,,,,,,,,,,,,,41.2005979,-76.37874549999998,"600 Green Acres Road, Benton, PA 17814, USA 600 GREEN ACRES ROAD BENTON PA 17814",,
Bentworth High School,Bentworth,7,Public,Senior High,10/5/11,330,164,166,75 BEARCAT DR,BENTLEYVILLE,15314,Washington,(724) 239-5911,(724) 239-4010,http://www.bentworth.org,Charles Baker,cbaker@bentworth.k12.pa.us,,George Lammay,glammay@bentworth.k12.pa.us,,George Linck,glinck@bentworth.k12.pa.us,,X,X,,,X,X,,,,X,,,X,,,X,X,,,,,,,,,,,X,,X,,X,X,,40.1246626,-80.0214507,"75 Bearcat Drive, Bentleyville, PA 15314, USA 75 BEARCAT DR BENTLEYVILLE PA 15314",,
Bentworth Middle School,Bentworth,7,Public,Junior High,,269,112,157,563 LINCOLN AVENUE,BENTLEYVILLE,15314,Washington,(724) 239-4431,(724) 239-5889,http://www.bentworth.org,,,,David Schreiber,dschreiber@bentworth.k12.pa.us,,,,,,X,,,X,,,,,X,,,,,,X,X,,,,,,,,,,,,,X,,,X,,40.1276727,-80.02932880000003,"563 Lincoln Avenue, Bentleyville, PA 15314, USA 563 LINCOLN AVENUE BENTLEYVILLE PA 15314",,
Berks Catholic High School,,3,Private,Senior High,10/3/11,531,274,257,955 East Wyomissing Blvd,Reading,19611,Berks,(610) 374-8361,(610) 374-4309,,,,,Anthony Balistrere,tbalistrere@berkscatholic.org,,Bill Hess,bhess@berkscatholic.org,,X,X,X,X,X,X,,X,,X,,X,X,X,,,X,X,,X,X,X,X,,,X,,X,,X,,X,X,,40.3237465,-75.9458573,"955 East Wyomissing Boulevard, Reading, PA 19611, USA 955 East Wyomissing Blvd Reading PA 19611",,
Berks Christian High School,,3,Private,Senior High,10/3/11,38,20,18,926 PHILADELPHIA TER,BIRDSBORO,19508,Berks,(610) 582-1000,(610) 404-0126,http://www.berkschristian.org,,,,Phil Warner,pwarner@berkschristian.org,,Jennifer Bartley,jbartley@berkschristian.org,,X,X,,,,,,,,X,,,X,,,,X,,,,,,,,,,,,,,,X,X,,40.285739,-75.81723899999997,"926 Philadelphia Avenue, Birdsboro, PA 19508, USA 926 PHILADELPHIA TER BIRDSBORO PA 19508",,
Berlin Brothersvalley High School,Berlin Brothersvalley,5,Public,Senior High,10/13/11,244,121,123,1025 E MAIN ST,BERLIN,15530,Somerset,(814) 267-4622,(814) 267-6060,http://www.bbsd.com,Dwayne Northcraft,dnorthcraft@bbsd.com,,William L Deal,bdeal@bbsd.com,,Tanner Prosser,tprosser@bbsd.com,,X,X,,X,X,X,,,X,X,,,X,,,X,X,,,,,,X,,,,X,X,,X,,X,X,,39.9211037,-78.94747000000001,"1025 Main Street, Berlin, PA 15530, USA 1025 E MAIN ST BERLIN PA 15530",,
Berlin Brothersvalley Middle School,Berlin Brothersvalley,5,Public,Junior High,10/14/09,238,110,128,1025 E MAIN ST,BERLIN,15530,Somerset,(814) 267-6931,(814) 267-6060,,,,,Martin Mudry,mmudry@bbsd.com,,Tanner Prosser,tprosser@bbsd.com,,,X,,,X,,,,,X,,,,,,X,X,,,,,,,,,,,X,,,,,X,,39.9211037,-78.94747000000001,"1025 Main Street, Berlin, PA 15530, USA 1025 E MAIN ST BERLIN PA 15530",,
Bermudian Springs High School,Bermudian Springs,3,Public,Senior High,10/4/11,554,266,288,7335 CARLISLE PIKE,YORK SPRINGS,17372,Adams,(717) 528-4113,(717) 528-4124,http://www.bermudian.org,Shane Hotchkiss,shotchkiss@bermudian.org,,Roger Stroup,rstroup@bermudian.org,,David W Orwig,dorwig@bermudian.org,,X,X,,X,X,X,,,,X,,X,X,,,X,X,,X,X,X,X,X,,,,,X,,X,,X,X,,39.98389700000001,-77.08325200000002,"7335 Carlisle Pike, York Springs, PA 17372, USA 7335 CARLISLE PIKE YORK SPRINGS PA 17372",,
Bermudian Springs Middle School,Bermudian Springs,3,Public,Junior High,10/4/11,504,233,271,7335 CARLISLE PIKE,YORK SPRINGS,17372,Adams,(717) 528-4113,(717) 528-4124,,Shane Hotchkiss,shotchkiss@bermudian.org,,Wade Hunt,whunt@bermudian.org,,David W Orwig,dorwig@bermudian.org,,,X,,,X,,,,,,,,X,,,X,X,,,,X,,,,,,,,,,,X,X,,39.98389700000001,-77.08325200000002,"7335 Carlisle Pike, York Springs, PA 17372, USA 7335 CARLISLE PIKE YORK SPRINGS PA 17372",,
Berwick Area High School,Berwick Area,2,Public,Senior High,10/5/11,718,348,370,1100 FOWLER AVENUE,BERWICK,18603,Columbia,(570) 759-6400,(570) 759-6466,http://www.berwicksd.org,Wayne Brookhart,wbrookhart@berwicksd.org,,Robert H. Croop,rcroop@berwicksd.org,,Jason P. Kingery,jkingery@berwicksd.org,,X,X,X,X,X,X,,,X,X,X,X,X,X,,X,X,X,X,X,X,X,X,,,,X,X,,X,X,X,X,,41.067394,-76.22933599999999,"1100 Fowler Avenue, Berwick, PA 18603, USA 1100 FOWLER AVENUE BERWICK PA 18603",,
Berwick Area Middle School,Berwick Area,2,Public,Junior High,10/3/11,768,356,412,1100 Evergreen Drive,BERWICK,18603,Columbia,(570) 759-6400,(570) 759-7978,,Wayne Brookhart,wbrookhart@berwicksd.org,,Chris Rivera,crivera@berwicksd.org,,Jason P. Kingery,jkingery@berwicksd.org,,X,X,,X,X,,,,,X,,,X,,,X,X,,X,X,X,,,,,,,X,,X,,X,,,41.0705125,-76.22948580000002,"1100 Evergreen Drive, Berwick, PA 18603, USA 1100 Evergreen Drive BERWICK PA 18603",,
Bethel Park High School,Bethel Park,7,Public,Senior High,10/3/11,1344,627,717,309 CHURCH RD,BETHEL PARK,15102,Allegheny,(412) 854-8548,(412) 854-8753,http://www.bpsd.k12.pa.us,Nancy Rose,rose.nancy@bpsd.org,,Zeb Jansante,jansante.zeb@bpsd.org,,Amy Scheuneman,scheuneman.amy@bpsd.org,,X,X,,X,X,X,X,X,X,X,X,X,X,X,,X,X,,X,X,,X,X,,X,X,X,X,,X,X,X,X,,40.3362726,-80.04501800000003,"309 Church Road, Pittsburgh, PA 15241, USA 309 CHURCH RD BETHEL PARK PA 15102",,
Bethlehem Catholic High School,,11,Private,Senior High,10/11/11,589,291,298,2133 MADISON AVE,BETHLEHEM,18017,Northampton,(610) 866-0791,(610) 317-8908,,Philip Fromuth,,,John P Petruzzelli,jpetruzzelli@bethlehemcatholichs.org,,Michael Grasso,mgrasso@bethlehemcatholichs.org,,X,X,,X,X,X,,X,,X,,X,X,X,,X,X,,X,X,X,X,X,,,,,X,,X,,X,X,,40.641499,-75.37118459999999,"2133 Madison Avenue, Bethlehem, PA 18017, USA 2133 MADISON AVE BETHLEHEM PA 18017",,
Bethlehem Catholic Junior High School,,11,Private,Junior High,10/12/11,411,224,187,2133 MADISON AVE,BETHLEHEM,18017,Northampton,(610) 866-0791 ext. 24,(610) 317-8908,http://bchsathletics@aol.com,Philip Fromuth,,,John P. Petruzzelli,jpetruzzelli@bethlehemcatholichs.org,,Michael Grasso,mgrasso@bethlehemcatholichs.org,,,X,,,X,,,,,X,,,,,,X,X,,,,,,,,,,,X,,X,,,,,40.641499,-75.37118459999999,"2133 Madison Avenue, Bethlehem, PA 18017, USA 2133 MADISON AVE BETHLEHEM PA 18017",,
Bethlehem Center High School,Bethlehem Center,7,Public,Senior High,10/4/11,330,166,164,179 CRAWFORD RD,FREDERICKTOWN,15333,Washington,(724) 267-4944,(724) 267-4907,,,,,Aaron Cornell,cornella@bc.k12.pa.us,,Barry Niemiec,bc-ad@bc.k12.pa.us,,X,X,,,X,X,,,,X,,,X,,,X,X,,,,,,,,,,,X,,X,,X,X,,40.0189308,-80.02423870000001,"179 Crawford Road, Fredericktown, PA 15333, USA 179 CRAWFORD RD FREDERICKTOWN PA 15333",,
Bethlehem Center Middle School,Bethlehem Center,7,Public,Junior High,10/11/11,295,143,152,136 CRAWFORD RD,FREDERICKTOWN,15333,Washington,(724) 267-4935,(724) 267-4937,,,,,Amanda Kinneer,kinneera@bc.k12.pa.us,,Barry Niemiec,athleticdirector@bc.k12.pa.us,,,X,,,X,,,,,,,,,,,X,X,,,,,,,,,,,,,X,,,,,40.0197344,-80.0254822,"136 Crawford Road, Fredericktown, PA 15333, USA 136 CRAWFORD RD FREDERICKTOWN PA 15333",,
Beverly Hills Middle School,Upper Darby,1,Public,Junior High,10/2/09,1477,727,750,1400 GARRETT ROAD,UPPER DARBY,19082,Delaware,(610) 626-9317,(610) 626-9321,,Richard Dunlap,rdunlap@upperdarbysd.org,,David Flamer,,,Monica Toal,mtoal@upperdarbysd.org,,X,X,,,X,,,X,,X,,,X,,,X,X,,,,X,,,,,X,,X,,X,,X,X,,39.9548824,-75.2720152,"1400 Garrett Road, Upper Darby, PA 19082, USA 1400 GARRETT ROAD UPPER DARBY PA 19082",,
Big Spring High School,Big Spring,3,Public,Senior High,10/3/11,771,385,386,100 MT ROCK RD,NEWVILLE,17241,Cumberland,(717) 776-2440,(717) 776-2501,http://www.bigspring.k12.pa.us,Richard Fry,rwfry@bigspring.k12.pa.us,,Steve Smith,stsmith@bigspring.k12.pa.us,,Jay Hockenbroch,jhockenbroch@bigspring.k12.pa.us,,X,X,,X,X,X,X,,,X,X,,X,,,X,X,,X,X,X,,X,,X,,,X,,X,X,X,X,,40.16899790000001,-77.37265049999996,"100 Mount Rock Road, Newville, PA 17241, USA 100 MT ROCK RD NEWVILLE PA 17241",,
Big Spring Middle School,Big Spring,3,Public,Junior High,10/13/09,724,368,356,43 MT ROCK RD,NEWVILLE,17241,Cumberland,(717) 776-2000,(717) 776-4428,http://www.bigspring.k12.pa.us,Richard W. Fry,rwfry@bigspringsd.org,,Linda C Wilson,,,Jay K Hockenbroch,jhockenbroch@bigspringsd.org,,,X,,X,X,,,,,X,,,X,,,X,X,,,X,X,,,,,,,X,,,,X,X,,40.1746315,-77.38642900000002,"43 Mount Rock Road, Newville, PA 17241, USA 43 MT ROCK RD NEWVILLE PA 17241",,
Biglerville High School,Upper Adams,3,Public,Senior High,10/13/11,429,216,213,161 N MAIN ST,BIGLERVILLE,17307,Adams,(717) 677-7191,(717) 677-0142,http://uasd.k12.pa.us,Wesley Doll,w.doll@upperadams.org,,Richard Sterner,r.sterner@upperadams.org,,Anthony Graham,a.graham@upperadams.org,,X,X,,X,X,,,,,X,,X,X,,,X,X,,,X,X,X,,,,,,X,,X,,X,,,39.933902,-77.24658999999997,"161 North Main Street, Biglerville, PA 17307, USA 161 N MAIN ST BIGLERVILLE PA 17307",,
Bishop Canevin High School,,7,Private,Senior High,10/3/11,284,143,141,2700 MORANGE RD,PITTSBURGH,15205,Allegheny,(412) 922-7400,(412) 922-7403,http://www.canevin.com,Michael Latusek,,,Kenneth Sinagra,sinagrak@bishopcanevin.org,,Daniel F. Bowman,bowmand@bishopcanevin.org,,X,X,X,X,X,X,X,,,X,X,X,X,,,,X,X,X,X,,X,X,,X,,,X,,X,X,X,X,,40.4235701,-80.0702566,"2700 Morange Road, Pittsburgh, PA 15205, USA 2700 MORANGE RD PITTSBURGH PA 15205",,
Bishop Carroll Catholic High School,,6,Private,Senior High,10/5/11,170,75,95,728 BEN FRANKLIN HIGHWAY,EBENSBURG,15931,Cambria,(814) 472-7500,(814) 472-8020,,Sr. donna Marie Leiden,dleiden@dioceseaj.org,,Lorie M. Ratchford,lratchford@bishopcarroll.org,,Joe Skura,jskura@bishopcarroll.org,,X,X,,X,X,X,,,,X,,,X,,,,X,,X,X,,,X,,,,,X,,X,,X,X,,40.4855642,-78.73623040000001,"728 Benjamin Franklin Highway, Ebensburg, PA 15931, USA 728 BEN FRANKLIN HIGHWAY EBENSBURG PA 15931",,
Bishop Carroll Catholic Junior High School,,6,Private,Junior High,10/6/09,238,120,118,728 BEN FRANKLIN HIGHWAY,EBENSBURG,15931,Cambria,(814) 472-7500,(814) 472-8020,,Sr. donna Marie Leiden,dleiden@dioceseaj.org,,Lorie Ratchford,lratchford@bishopcarroll.org,,Joseph Skura,jskura@bishopcarroll.org,,X,X,,X,X,,,,,,,,X,,,,X,,,X,,,,,,,,,,,,X,X,,40.4855642,-78.73623040000001,"728 Benjamin Franklin Highway, Ebensburg, PA 15931, USA 728 BEN FRANKLIN HIGHWAY EBENSBURG PA 15931",,
Bishop Guilfoyle Catholic High School,,6,Private,Senior High,10/5/11,254,125,129,2400 PLEASANT VALLEY BLVD,ALTOONA,16602,Blair,(814) 944-4014,(814) 944-8695,http://www.bishopguilfoyle.org,Sister donna marie Leiden,leiden.donna@daj.k12.pa.us,,Joan M Donnelly,jdonnelly@bguilfoyle.org,,Michael J Cacciotti,bghsathletics@bguilfoyle.org,,X,X,,X,X,X,,,,X,,X,X,X,,,X,,,X,,X,X,,,,,X,,X,,X,X,,40.494586,-78.39541229999998,"2400 Pleasant Valley Boulevard, Altoona, PA 16602, USA 2400 PLEASANT VALLEY BLVD ALTOONA PA 16602",,
Bishop Guilfoyle Junior High School,,6,Private,Junior High,10/5/11,300,159,141,2400 PLEASANT VALLEY BLVD,ALTOONA,16602,Blair,(814) 944-4014,(814) 944-8695,http://www.bishopguilfoyle.org,Sister donna Marie Leiden,leiden.donna@daj.k12.pa.us,,Joan M Donnelly,jdonnelly@bguilfoyle.org,,Michael J Cacciotti,bghsathletics@bguilfoyle.org,,X,X,,X,X,,,,,,,,,,,,X,,,X,,,,,,,,,,,,,,,40.494586,-78.39541229999998,"2400 Pleasant Valley Boulevard, Altoona, PA 16602, USA 2400 PLEASANT VALLEY BLVD ALTOONA PA 16602",,
Bishop McCort Catholic High School,,6,Private,Senior High,10/6/11,306,162,144,25 OSBORNE ST,JOHNSTOWN,15905,Cambria,(814) 536-8991,(814) 535-4118,http://www.mccort.org,Sister donna marie Leiden,dleiden@dioceseaj.org,,D.a. Gardill,dagardill@mccort.org,,Fran Zima,fzima@mccort.org,,X,X,,X,X,X,,,,X,X,X,X,,,,X,,X,X,,X,X,,,,,X,,X,X,X,X,,40.3049911,-78.9169824,"25 Osborne Street, Johnstown, PA 15905, USA 25 OSBORNE ST JOHNSTOWN PA 15905",,
Bishop McCort Junior High School,,6,Private,Junior High,10/6/11,274,131,143,25 OSBORNE ST,JOHNSTOWN,15905,Cambria,(814) 536-8991,(814) 535-4118,,Sr donna marie Leiden,dleiden@dioceseaj.org,,Kenneth S. Salem,ksalem@mccort.org,,Fran Zima,fzima@mccort.org,,,X,,,X,,,,,,,,,,,,X,,,,,,,,,,,,,,,,X,,40.3049911,-78.9169824,"25 Osborne Street, Johnstown, PA 15905, USA 25 OSBORNE ST JOHNSTOWN PA 15905",,
Bishop McDevitt High School,,3,Private,Senior High,10/4/11,497,226,271,1 CRUSADER WAY,HARRISBURG,17111,Dauphin,(717) 236-7973,(717) 234-1270,http://ww.bishopmcdevitt.org,Sr Sue ann steves Ihm,,,Sr Mary anne Bednar,smaryanneb@bishopmcdevitt.org,,Tommy Mealy,tmealy@bishopmcdevitt.org,,X,X,X,X,X,X,X,X,,X,X,X,X,,,X,X,X,X,X,X,X,X,,X,,,X,,X,X,X,,,40.2737594,-76.79288500000001,"Crusader Way, Harrisburg, PA 17111, USA 1 CRUSADER WAY HARRISBURG PA 17111",,
Bishop McDevitt High School,,12,Private,Senior High,10/3/11,459,212,247,125 ROYAL AVE,WYNCOTE,19095,Montgomery,(215) 887-5575,(215) 887-1371,,,,,Mary E Kirby,mkirby@mcdevitths.org,,Pat Manzi,pmanzi@mcdevitths.org,,X,X,,X,X,,X,,,X,,,X,,,X,X,,,X,X,,,,X,X,,X,,X,,X,X,,40.0931308,-75.1555677,"Royal Avenue, Wyncote, PA 19095, USA 125 ROYAL AVE WYNCOTE PA 19095",,
Bishop McDevitt Junior High School,,3,Private,Junior High,10/4/11,580,300,280,1 CRUSADER WAY,HARRISBURG,17111,Dauphin,(717) 236-7973,(717) 234-1270,http://WWW.BISHOPMCDEVITT.ORG,,,,Sr Mary anne Bednar,smaryanneb@bishopmcdevitt.org,,Tommy Mealy,tmealy@bishopmcdevitt.org,,,X,,X,X,,,,,,,,,,,,X,,,X,,,,,,,,,,,,,,,40.2737594,-76.79288500000001,"Crusader Way, Harrisburg, PA 17111, USA 1 CRUSADER WAY HARRISBURG PA 17111",,
Bishop Shanahan High School,,1,Private,Senior High,10/4/11,887,456,431,220 Woodbine Road,Downingtown,19335,Chester,(610) 518-1300,(610) 343-6220,http://shanahan.org,Carol Cary,,,Mauren Mcdermott,mmcdermott@shanahan.org,,Ron Reidinger,rreidinger@shanahan.org,,X,X,,X,X,X,,X,,X,X,X,X,,,,X,,X,X,X,X,X,,,X,,X,,X,X,X,X,,40.0081082,-75.68668130000003,"220 Woodbine Road, Downingtown, PA 19335, USA 220 Woodbine Road Downingtown PA 19335",,
Blackhawk High School,Blackhawk,7,Public,Senior High,10/11/11,638,315,323,500 BLACKHAWK RD,BEAVER FALLS,15010,Beaver,(724) 846-9600,(724) 891-3901,http://WWW.BSD.K12.PA.US,Michelle Miller,millerm@bsd.k12.pa.us,,Scott R. Nelson,nelsons@bsd.k12.pa.us,,Jack Fullen,fullenj@bsd.k12.pa.us,,X,X,,X,X,X,,,,X,X,X,X,,,X,X,,,X,,X,X,,,X,,X,,X,X,X,X,,40.7641605,-80.39837920000002,"500 Blackhawk Road, Beaver Falls, PA 15010, USA 500 BLACKHAWK RD BEAVER FALLS PA 15010",,
Blacklick Valley High School,Blacklick Valley,6,Public,Senior High,10/4/11,161,68,93,555 BIRCH ST,NANTY GLO,15943,Cambria,(814) 749-9211,(814) 749-8627,http://www.bvsd.k12.pa.us,John Mastillo,jmastillo@bvsd.k12.pa.us,,Laura Fisanick,lfisanic@bvsd.k12.pa.us,,Christopher Zamboni,czamboni@bvsd.k12.pa.us,,X,X,,,X,,,,,,,,X,,,,X,,,,,,,,,,,,,X,,X,,,40.47765769999999,-78.83638459999997,"555 Birch Street, Nanty-Glo, PA 15943, USA 555 BIRCH ST NANTY GLO PA 15943",,
Blacklick Valley Junior High School,Blacklick Valley,6,Public,Junior High,10/4/11,140,64,76,555 BIRCH ST,NANTY GLO,15943,Cambria,(814) 749-9211,(814) 749-8627,,John Mastillo,jmastillo@bvsd.k12.pa.us,,Laura Fisanick,lfiisabic@bvsd.k12.pa.us,,Christopher Zamboni,czamboni@bvsd.k12.pa.us,,,X,,,X,,,,,,,,,,,,X,,,,,,,,,,,,,,,,,,40.47765769999999,-78.83638459999997,"555 Birch Street, Nanty-Glo, PA 15943, USA 555 BIRCH ST NANTY GLO PA 15943",,
Blairsville High School,Blairsville-Saltsburg,6,Public,Senior High,10/12/11,295,141,154,100 SCHOOL LN,BLAIRSVILLE,15717,Indiana,(724) 459-8882,(724) 459-3392,,Tammy Whitfield,whitfield@b-ssd.org,,Jeff Soles,solesjeff@b-ssd.org,,Jim Buckles,buckles@b-ssd.org,,X,X,,X,X,X,,,,,,,X,,,X,X,,X,X,,,,,,,,,,X,,X,X,,40.4489695,-79.21917669999999,"100 School Lane, Blairsville, PA 15717, USA 100 SCHOOL LN BLAIRSVILLE PA 15717",,
Blairsville Middle School,Blairsville-Saltsburg,6,Public,Junior High,10/12/11,248,113,135,104 SCHOOL LN,BLAIRSVILLE,15717,Indiana,(724) 459-8880,(724) 459-0213,,Tammy Whitfield,whitfield@b-ssd.org,,Joseph P Baker,bakerjoseph@b-ssd.org,,John Palaika,palaikajohn@b-ssd.org,,,X,,,X,,,,,,,,,,,X,X,,,,,,,,,,,,,,,,X,,40.4488728,-79.21943650000003,"104 School Lane, Blairsville, PA 15717, USA 104 SCHOOL LN BLAIRSVILLE PA 15717",,
Bloomsburg High School,Bloomsburg Area,4,Public,Senior High,10/12/11,313,147,166,1200 RAILROAD ST,Bloomsburg,17815,Columbia,(570) 784-6100,(570) 387-3492,http://bloomsburgasd.schoolwires.com,Cosmas C. Curry,ccurry@bloomsd.k12.pa.us,,Daniel P Bonomo,dbonomo@bloomsd.k12.pa.us,,Ryan T Gibble,rgibble@bloomsd.k12.pa.us,,X,X,,X,X,X,,,,X,X,X,X,,,X,X,,X,X,X,X,X,,,,,X,,X,X,X,,,40.9883211,-76.45499999999998,"1200 Railroad Street, Bloomsburg, PA 17815, USA 1200 RAILROAD ST Bloomsburg PA 17815",,
Bloomsburg Middle School,Bloomsburg Area,4,Public,Junior High,10/12/11,411,196,215,1100 RAILROAD ST,BLOOMSBURG,17815,Columbia,(570) 784-9100,(570) 387-3491,http://www.Bloomhs.k12.PA.US,Cosmas Curry,ccurry@bloomsd.k12.pa.us,,Marc Freeman,mfreeman@bloomsd.k12.pa.us,,Ryan Gibble,rgibble@bloomsd.k12.pa.us,,,X,,X,X,,,,,,,,,,,X,X,,,X,X,,,,,,,,,,,,,,40.989374,-76.45525099999998,"1100 Railroad Street, Bloomsburg, PA 17815, USA 1100 RAILROAD ST BLOOMSBURG PA 17815",,
Blue Mountain High School,Blue Mountain,11,Public,Senior High,10/3/11,721,350,371,1076 W. MARKET ST,SCHUYLKILL HAVEN,17972,Schuylkill,(570) 366-0511,(570) 366-1965,http://www.bmsd.org,Robert Urzillo,rlurzillo@bmsd.org,,Kevin W. Berger,kwberger@bmsd.org,,Ruth weidman Harry myers,raweidman@bmsd.org,,X,X,,X,X,X,,,,X,X,X,X,,,X,X,,X,X,,X,X,,,,,X,,X,X,X,X,,40.6473185,-76.1364893,"1076 West Market Street, Schuylkill Haven, PA 17972, USA 1076 W. MARKET ST SCHUYLKILL HAVEN PA 17972",,
Blue Mountain Middle School,Blue Mountain,11,Public,Junior High,10/13/09,687,337,350,P.O. BOX 279,ORWIGSBURG,17961,Schuylkill,(570) 366-0546,(570) 366-2513,,Joyce Romberger,jeromberger@bmsd.org,,James S Mcconigle,,,Ruth Weidman,raweidman@bmsd.org,,,X,,X,,,,,,X,,,X,,,X,X,,,X,,,,,,,,,,X,,X,,,40.654813,-76.10077130000002,"Orwigsburg, PA, USA P.O. BOX 279 ORWIGSBURG PA 17961",,
Blue Ridge High School,Blue Ridge,2,Public,Senior High,10/11/11,285,137,148,5058 School Road,NEW MILFORD,18834,Susquehanna,(570) 465-3144,(570) 465-3148,,Robert Mctiernan,mctiernanr@brsd.org,,Matthew Nebzydoski,mnebzyboski@blueridge18.org,,M. jill Hoffman,hoffmanji@brsd.org,,X,X,,X,,X,,,,X,,,X,X,,X,X,,,X,,,X,,,,,,,X,,X,X,,41.8749115,-75.7844811,"School Road, New Milford, PA 18834, USA 5058 School Road NEW MILFORD PA 18834",,
Blue Ridge Middle School,Blue Ridge,2,Public,Junior High,10/12/11,257,132,125,5058 School Road,NEW MILFORD,18834,Susquehanna,(570) 465-3144,(570) 465-3148,,Robert Mctiernan,mctiernanr@brsd.org,,Matt Nebzydoski,nebzydoskim@brsd.org,,M. jill Hoffman,hoffmanj@brsd.org,,X,X,,X,,X,,,,X,,,X,,,X,X,,,X,,,X,,,,,,,X,,X,,,41.8749115,-75.7844811,"School Road, New Milford, PA 18834, USA 5058 School Road NEW MILFORD PA 18834",,
Bodine High School for International Affairs,Philadelphia,12,Public,Senior High,10/28/11,410,244,166,1101 NORTH 4TH STREET,PHILADELPHIA,19123,Philadelphia,(215) 351-7332,(215) 351-7370,,,,,Deborah Jumpp,djumpp@philasd.org,,Michael Schieber,Mschieber@philasd.org,,X,X,,,,,,,,X,,X,X,X,,,X,,X,,,X,,,,,,X,,X,,X,X,,39.9680973,-75.14320120000002,"1101 North 4th Street, Philadelphia, PA 19123, USA 1101 NORTH 4TH STREET PHILADELPHIA PA 19123",,
Boiling Springs High School,South Middleton,3,Public,Senior High,10/11/11,541,265,276,4 FORGE RD,BOILING SPRINGS,17007,Cumberland,(717) 258-6484,(717) 258-5014,,Allen E. Moyer,aem@smsd.us,,Joseph W Mancuso,jwm@smsd.us,,Patrick L Dieter,pld@smsd.us,,X,X,,X,X,X,,,,X,X,,X,,,X,X,,,X,X,,,,,,,X,,X,X,X,X,,40.1529736,-77.13643819999999,"4 Forge Road, Boiling Springs, PA 17007, USA 4 FORGE RD BOILING SPRINGS PA 17007",,
Boyertown Area High School,Boyertown Area,1,Public,Senior High,10/20/11,1688,840,848,120 N MONROE ST,BOYERTOWN,19512,Berks,(610) 473-3640,(610) 473-5444,http://www.boyertownasd.org,Richard Faidley,dfaidley@boyertownasd.org,,Brett A Cooper,bcooper@boyertownasd.org,,Madison L. Morton,mmorton@boyertownasd.org,,X,X,,X,X,X,X,X,,X,X,X,X,,,X,X,,,X,X,X,,,X,X,,X,,X,X,X,,,40.3310582,-75.63058639999997,"120 North Monroe Street, Boyertown, PA 19512, USA 120 N MONROE ST BOYERTOWN PA 19512",,
Boyertown Junior High School East Center,Boyertown Area,1,Public,Junior High,10/20/11,576,288,288,2020 BIG RD,GILBERTSVILLE,19525,Montgomery,(610) 754-9550,(610) 754-9567,http://www.basd.netjunction.com\sports,Richard Faidley,rfaidley@boyertownasd.org,,Andrew C Ruppert,aruppert@boyertownasd.org,,Madison L. Morton,mmorton@boyertownasd.org,,X,X,,,X,,,,,X,,,X,,,X,X,,,,X,,,,,X,,X,,X,,X,,,40.3165516,-75.57555250000001,"2020 Big Road, Gilbertsville, PA 19525, USA 2020 BIG RD GILBERTSVILLE PA 19525",,
Boyertown Junior High School West,Boyertown Area,1,Public,Junior High,10/20/11,542,245,297,380 S MADISON ST,BOYERTOWN,19512,Berks,(610) 369-7471,(610) 369-7476,,Richard Faidley,rfaidley@boyertownasd.org,,Greg Galtere,ggaltere@boyertownasd.org,,Madison L. Morton,mmorton@boyertownasd.org,,X,X,,,X,,,,,X,,,X,,,X,X,,,,X,,,,,X,,X,,X,,X,,,40.3260377,-75.63227560000001,"380 South Madison Street, Boyertown, PA 19512, USA 380 S MADISON ST BOYERTOWN PA 19512",,
Boys' Latin of Philadelphia Charter School,Philadelphia,12,Charter,Senior High,10/5/11,389,0,389,5501 Cedar Avenue,Philadelphia,19143,Philadelphia,(215) 387-5149,(215) 387-5159,,David Hardy,dhardy@boyslatin.org,,Noah Tennant,ntennant@boyslatin.org,,Joseph J Dunn,jdunn@boyslatin.org,,X,X,X,X,X,X,,,,X,,,X,,,X,,,,,,,,,,,,,,,,,,,39.95166589999999,-75.23343699999998,"5501 Cedar Avenue, Philadelphia, PA 19143, USA 5501 Cedar Avenue Philadelphia PA 19143",,
Bradford Area High School,Bradford Area,9,Public,Senior High,10/12/11,637,326,311,81 INTERSTATE PKWY,BRADFORD,16701,McKean,(814) 362-3845,(814) 362-1765,http://www.bradfordareaschools.org,Katharine Pude,kpude@bradfordareaschools.org,,David Ray,dray@bradfordareaschools.org,,Timothy J Walter,twalter@bradfordareaschools.org,,X,X,,X,X,X,,,,X,X,X,X,,,X,X,,X,X,,X,X,,,,,X,,X,X,X,X,,41.9591946,-78.65886949999998,"81 Interstate Parkway, Bradford, PA 16701, USA 81 INTERSTATE PKWY BRADFORD PA 16701",,
Brandywine Heights Area High School,Brandywine Heights Area,3,Public,Senior High,10/4/11,453,226,227,200 W WEIS STEET,TOPTO,19562,Berks,(610) 682-5102,(610) 682-5137,http://www.bhasd.org,Mr. andrew Potteiger,andpotn@bhasd.org,,Heather Piperato,heapip@bhasd.org,,"Robert Kurzweg iii, cmaa",robkur@bhasd.org,,X,X,,,,X,,,,X,,X,,X,,X,X,,X,,X,X,,,,,,X,,X,,,X,,40.5066881,-75.70516470000001,"Topton, PA 19562, USA 200 W WEIS STEET TOPTO PA 19562",,
Brandywine Heights Area Middle School,Brandywine Heights Area,3,Public,Junior High,10/4/11,430,232,198,200 West Weis Street,Topton,19562,Berks,(610) 682-5131,(610) 682-5137,http://www.bhash.k12.pa.us,Mr. andrew Potteiger,andpotn@bhasd.org,,Dr. kathy Johnson,katjoh@bhasd.org,,Robert Kurzweg iii,robkur@bhasd.org,,X,X,,,,,,,,X,,,,,,X,X,,X,,X,,,,,,,X,,X,,,X,,40.4966793,-75.70293930000003,"200 West Weis Street, Topton, PA 19562, USA 200 West Weis Street Topton PA 19562",,
Brashear High School,Pittsburgh,8,Public,Senior High,11/30/11,1587,820,767,590 CRANE AVE,PITTSBURGH,15216,Allegheny,(412) 571-7300,(412) 571-7305,,Linda Lane,,,Angel Washington,awashington1@pghboe.net,,Nikki Lockwich,nlockwich1@pghboe.net,,X,X,,X,X,X,,,,X,X,X,X,X,,X,X,,,X,,X,,,,,,X,,X,X,X,X,,40.4169322,-80.01904230000002,"590 Crane Avenue, Pittsburgh, PA 15216, USA 590 CRANE AVE PITTSBURGH PA 15216",,
Brentwood High School,Brentwood Borough,7,Public,Senior High,10/12/11,310,160,150,3601 BROWNSVILLE road,PITTSBURGH,15227,Allegheny,(412) 881-4940,(412) 881-4170,http://www.brentwoodpgh.k12.pa.us,Ronald W. Dufalla,dufallar@brentwoodpgh.k12.pa.us,,Jason T. Olexa,olexaj@brentwoodpgh.k12.pa.us,,Rick Huffman,huffmanr@brentwoodpgh.k12.pa.us,,X,X,,X,X,X,,,,X,X,,X,,,,X,,,X,,,,,,,,,,X,X,X,X,,40.3744119,-79.97455630000002,"3601 Brownsville Road, Pittsburgh, PA 15227, USA 3601 BROWNSVILLE road PITTSBURGH PA 15227",,
Brentwood Middle School,Brentwood Borough,7,Public,Junior High,10/12/11,283,153,130,3601 BROWNSVILLE road,PITTSBURGH,15227,Allegheny,(412) 881-4940,(412) 881-4170,http://www.brentwoodpgh.k12.pa.us,Ronald W. Dufalla,dufallar@brentwoodpgh.k12.pa.us,,Jason T. Olexa,olexaj@brentwoodpgh.k12.pa.us,,Rick Huffman,huffmanr@brentwoodpgh.k12.pa.us,,,X,,,,,,,,,X,,X,,,,X,,,,,,,,,,,,,,X,X,X,,40.3744119,-79.97455630000002,"3601 Brownsville Road, Pittsburgh, PA 15227, USA 3601 BROWNSVILLE road PITTSBURGH PA 15227",,
Bristol High School,Bristol Borough,1,Public,Senior High,10/14/11,322,139,183,1801 WILSON AVE,BRISTOL,19007,Bucks,(215) 781-1000,(215) 781-1033,,Gregory Wright,gwright@bbsd.org,,Thomas F Shaffer,Tshaffer@bbsd.org,,Gregory Pinelli,gpinelli55@gmail.com,,X,X,X,X,X,,,,,,,,X,,,X,X,X,,X,X,,,,,,,,,X,,X,,,40.10814980000001,-74.84482309999999,"1801 Wilson Avenue, Bristol, PA 19007, USA 1801 WILSON AVE BRISTOL PA 19007",,
Brockway Area High School,Brockway Area,9,Public,Senior High,10/7/11,252,105,147,100 ALEXANDER ST,BROCKWAY,15824,Jefferson,(814) 265-8414,(814) 265-8413,,Dan Hawkins,dhawkins@brockway.k12.pa.us,,Denise E Carlini,dcarlini@brockway.k12.pa.us,,Peter Grecco,pgrecco@brockway.k12.pa.us,,X,X,,X,X,X,,,,X,,X,,,,X,X,,,X,,X,X,,,,,X,,X,,,X,,41.2506938,-78.80272049999996,"100 Alexander Street, Brockway, PA 15824, USA 100 ALEXANDER ST BROCKWAY PA 15824",,
Brockway Area Junior High School,Brockway Area,9,Public,Junior High,10/7/11,256,118,138,100 ALEXANDER ST,BROCKWAY,15824,Jefferson,(814) 265-8414,(814) 265-8413,http://www.brockway.k12.pa.us,Dan Hawkins,dhawkins@brockway.k12.pa.us,,Denise E Carlini,dcarlini@brockway.k12.pa.us,,Peter Grecco,pgrecco@brockway.k12.pa.us,,,X,,,X,,,,,X,,,,,,X,X,,,,,,,,,,,,,,,,X,,41.2506938,-78.80272049999996,"100 Alexander Street, Brockway, PA 15824, USA 100 ALEXANDER ST BROCKWAY PA 15824",,
Brookville Area High School,Brookville Area,9,Public,Senior High,10/12/11,412,199,213,PO Box 479,BROOKVILLE,15825,Jefferson,(814) 849-8372,(814) 849-1117,,Sandra Craft,dhetrick@basd.us,,Robert Rocco,rrocco@basd.us,,David Osborne,dosborne@basd.us,,X,X,,X,X,X,,,,X,X,,X,,,X,X,,,X,,,X,,,,,X,,X,X,X,X,,41.1611746,-79.0830924,"Brookville, PA, USA PO Box 479 BROOKVILLE PA 15825",,
Brookville Junior High School,Brookville Area,9,Public,Junior High,10/6/09,393,196,197,96 JENKS ST,BROOKVILLE,15825,Jefferson,(814) 849-8372,(814) 849-1114,,Sandra Craft,,,Keith S Wolfe,,,David Osborne,dosborne@basd.us,,,X,,X,X,,,,,,X,,,,,X,X,,,X,,,,,,,,,,,X,,,,41.17355,-79.08726899999999,"96 Jenks Street, Brookville, PA 15825, USA 96 JENKS ST BROOKVILLE PA 15825",,
Broughal Middle School,Bethlehem Area,11,Public,Junior High,10/3/11,585,281,304,114 West Morton Street,BETHLEHEM,18015,Northampton,(610) 866-5041,(610) 861-8107,,Joseph Roy,,,Edward Docalovich,edocalovich@bethsd.org,,Sarah Snell,ssnell@bethsd.org,,,X,,X,X,,,,,X,,,,,,,X,,,X,X,,,,,,,,,X,,,X,,40.609719,-75.38093449999997,"114 West Morton Street, Bethlehem, PA 18015, USA 114 West Morton Street BETHLEHEM PA 18015",,
Brownsville Area High School,Brownsville Area,7,Public,Senior High,10/4/11,489,263,226,1 FALCON DRIVE,BROWNSVILLE,15417,Fayette,(724) 785-8200,(724) 785-8930,http://www.basd.org,Philip J. Savini,psavini@basd.org,,Jason Kushak,jkushak@basd.org,,Scott Roebuck,sroebuck@basd.org,,X,X,,X,X,X,,,,X,,X,X,,,,X,,,X,,X,,,,,,,,X,,X,X,,39.9692418,-79.87699199999997,"Brownsville High School, 1 Falcon Drive, Brownsville, PA 15417, USA 1 FALCON DRIVE BROWNSVILLE PA 15417",,
Brownsville Area Middle School,Brownsville Area,7,Public,Junior High,10/3/11,451,236,215,THREE FALCON DRIVE,BROWNSVILLE,15417,Fayette,(724) 785-2155,(724) 785-2502,,,,,Vincent E Nesser,vnesser@basd.org,,Scott Roebuck,sroebuck@basd.org,,X,X,,,X,,,,,X,,,X,,,,X,,,,,,,,,,,,,X,,X,X,,39.9692418,-79.87699199999997,"Brownsville High School, 1 Falcon Drive, Brownsville, PA 15417, USA THREE FALCON DRIVE BROWNSVILLE PA 15417",,
Bucktail Area High School,Keystone Central,4,Public,Senior High,10/3/11,119,57,62,1300 BUCKTAIL AVE,RENOVO,17764,Clinton,(570) 923-1166,(570) 923-2233,,Kelly Hastings,khastings@kcsd.us,,Justin Evey,,,Frank Hanobic,fhanobic@kcsd.us,,X,X,,,X,,,,,,,,,,,,X,,,,,X,,,,,,,,X,,,,,41.3361777,-77.7089555,"1300 Bucktail Avenue, Renovo, PA 17764, USA 1300 BUCKTAIL AVE RENOVO PA 17764",,
Bucktail Area Junior High School,Keystone Central,4,Public,Junior High,10/6/09,117,54,63,1300 BUCKTAIL AVE,RENOVO,17764,Clinton,(717) 923-1166,(717) 923-2233,,Kelly Hastings,khastings@kcsd.us,,Justin Evey,,,Frank Hanobic,fhanobic@kcsd.us,,,X,,,X,,,,,,,,,,,X,X,,,,,,,,,,,,,X,,,,,41.3361777,-77.7089555,"1300 Bucktail Avenue, Renovo, PA 17764, USA 1300 BUCKTAIL AVE RENOVO PA 17764",,
Burgettstown Area High School,Burgettstown Area,7,Public,Senior High,10/12/11,339,145,194,104 BAVINGTON RD,BURGETTSTOWN,15021,Washington,(724) 947-8100,(724) 947-3325,,Deborah Jackson,djackson@burgettstown.k12.pa.us,,Michael Wright,mwright@burgettstown.k12.pa.us,,Terry Havelka,thavelka@burgettstown.k12.pa.us,,X,X,,X,X,X,,,,,,,X,,,X,X,,,X,,,,,,,,,,X,,X,X,,40.397842,-80.38890630000003,"104 Bavington Road, Burgettstown, PA 15021, USA 104 BAVINGTON RD BURGETTSTOWN PA 15021",,
Burgettstown Area Middle School,Burgettstown Area,7,Public,Junior High,10/12/11,335,158,177,104 BAVINGTON RD,BURGETTSTOWN,15021,Washington,(724) 947-8100,(724) 947-3325,,Deborah Jackson,djackson@burgettstown.k12.pa.us,,David Palmer,dpalmer@burgettstown.k12.pa.us,,Jon Vallina,jvallina@burgettstown.k12.pa.us,,,X,,X,X,,,,,,,,X,,,X,X,,,X,,,,,,,,,,X,,X,X,,40.397842,-80.38890630000003,"104 Bavington Road, Burgettstown, PA 15021, USA 104 BAVINGTON RD BURGETTSTOWN PA 15021",,
Burrell High School,Burrell,7,Public,Senior High,10/11/11,464,223,241,1021 PUCKETY CHURCH RD,LOWER BURRELL,15068,Westmoreland,(724) 334-1403,(724) 334-1420,http://www.wiu.k12.pa.us/burrell,Shannon L. Wagner,swagner@wiu.k12.pa.us,,John C. Boylan,jcboylan@wiu.k12.pa.us,,Brian Ferra,bferra@wiu.k12.pa.us,,X,X,,,X,X,,,,X,X,X,X,,,X,X,,,,,X,,,,,,X,,X,X,X,X,,40.584561,-79.69754899999998,"1021 Puckety Church Road, New Kensington, PA 15068, USA 1021 PUCKETY CHURCH RD LOWER BURRELL PA 15068",,
Butler Area High School,Butler Area,7,Public,Senior High,10/6/11,1968,941,1027,120 CAMPUS LN,BUTLER,16001,Butler,(724) 287-8721,(724) 287-1596,,Michael Strutt,michael_strutt@butler.k12.pa.us,,Jeffery J Schnur,jeff_schnur@butler.k12.pa.us,,Bill Mylan,william_mylan@butler.k12.pa.us,,X,X,X,X,X,X,X,X,X,X,X,X,X,X,,X,X,X,X,X,,X,X,,X,X,X,X,,X,X,X,X,,40.8658869,-79.91916859999998,"120 Campus Lane, Butler, PA 16001, USA 120 CAMPUS LN BUTLER PA 16001",,
Butler Area Junior High School,Butler Area,7,Public,Junior High,10/2/09,1782,832,950,225 E NORTH ST,BUTLER,16001,Butler,(724) 287-8721,(724) 287-7847,,Edward Fink,,,James W Allen,James_Allen@butler.k12.pa.us,,Curt Phillips,,,,X,,X,X,,,,,X,,,X,X,,X,X,,,X,,,,,,,,X,,X,,X,X,,40.8622661,-79.89302270000002,"225 East North Street, Butler, PA 16001, USA 225 E NORTH ST BUTLER PA 16001",,
C E McCall Middle School,Montoursville Area,4,Public,Junior High,10/1/09,466,213,253,100 N Arch Street,Montoursville,17754,Lycoming,(570) 368-2611,(570) 368-2768,,Timothy Bowers,tbowers@montoursville.k12.pa.us,,Jeff Moore,jmoore@montoursville.k12.pa.us,,Evelyn Wynn,ewynn@montoursville.k12.pa.us,,,X,,X,X,,,,,X,,,,,,X,X,,,X,,,,,,,,,,X,,,,,41.2499748,-76.92002279999997,"100 North Arch Street, Montoursville, PA 17754, USA 100 N Arch Street Montoursville PA 17754",,
California Area High School,California Area,7,Public,Senior High,10/14/11,254,118,136,11 Trojan Way,COAL CENTER,15423,Washington,(724) 785-5800,(724) 785-8860,http://www.calsd.org,Brian Jackson,jacksonb@calsd.org,,Leigh ann Folmar,folmarl@calsd.org,,Phil Pergola,pergolap@calsd.org,,X,X,,,X,X,,,,X,,,X,,,,X,,,,,X,,,,,,,,X,,X,X,,40.0449275,-79.92644089999999,"11 Trojan Way, Coal Center, PA 15423, USA 11 Trojan Way COAL CENTER PA 15423",,
California Area Middle School,California Area,7,Public,Junior High,10/7/11,241,116,125,40 Trojan Way,COAL CENTER,15423,Washington,(724) 785-5800,(724) 785-5458,http://www.calsd.org,Brian Jackson,jacksonb@calsd.org,,Raymond Huffman,huffmanr@calsd.org,,Phil Pergola,pergolap@calsd.org,,,X,,,X,,,,,X,,,X,,,,X,,,,,,,,,,,,,X,,X,X,,40.0441549,-79.9250298,"Trojan Way, Coal Center, PA 15423, USA 40 Trojan Way COAL CENTER PA 15423",,
Calvary Baptist Christian School,,10,Private,Junior High,,31,10,21,543 Randolph Street,Meadville,16335,Crawford,(814) 724-6606,(814) 337-4357,,,,,Daryl Van norman,darylkv@yahoo.com,,,,,,X,,,,,,,,X,,,,,,,X,,,,,,,,,,,X,,,,,X,,41.6428078,-80.1413766,"543 Randolph Street, Meadville, PA 16335, USA 543 Randolph Street Meadville PA 16335",,
Calvary Baptist High School,,1,Private,Senior High,10/3/11,99,52,47,1380 SOUTH VALLEY FORGE RD,LANSDALE,19446,Montgomery,,(215) 368-1003,,,,,Randall C Thaxton,,,Scott Bergey,sbergey@cbs.edu,,X,X,,,,,,,,X,,,,,,,X,,,,,,,,,,,,,,,,X,,40.2314669,-75.31337200000002,"1380 South Valley Forge Road, Lansdale, PA 19446, USA 1380 SOUTH VALLEY FORGE RD LANSDALE PA 19446",,
Calvary Christian Academy,,1,Private,Senior High,10/3/11,235,111,124,13500 PHILMONT AVENUE,PHILADELPHIA,19116,Philadelphia,(215) 969-2404,(215) 969-9732,http://www.ccphilly.org,,,,Al Schiavo,aschiavo@ccphilly.org,,Mike Cardinal,mcardinal@ccphilly.org,,X,X,,X,X,X,,,,X,,,X,,,,X,,,X,,X,,,,,,X,,X,,X,,,40.129836,-75.01715899999999,"13500 Philmont Avenue, Philadelphia, PA 19116, USA 13500 PHILMONT AVENUE PHILADELPHIA PA 19116",,
Cambria Heights High School,Cambria Heights,6,Public,Senior High,10/12/11,382,181,201,426 GLENDALE LAKE ROAD,PATTON,16668,Cambria,(814) 674-3601,(814) 674-5605,,Michael Strasser,,,Timothy F Laurito,,,Thomas A Boyle,tboyle@chsd1.org,,X,X,,X,X,,,,,X,X,,X,,,X,X,,,X,,,,,,,,X,,,X,X,X,,40.6327618,-78.6276732,"426 Glendale Lake Road, Patton, PA 16668, USA 426 GLENDALE LAKE ROAD PATTON PA 16668",,
Cambria Heights Middle School,Cambria Heights,6,Public,Junior High,10/3/11,333,166,167,414 GLENDALE LAKE RD,PATTON,16668,Cambria,(814) 674-6290,(814) 674-5054,,Michael Strasser,,,Dave Caldwell,,,Tom Boyle,,,,X,,X,X,,,,,X,,,X,,,X,X,,,X,,,,,,,,X,,,,X,X,,40.63249039999999,-78.6280539,"414 Glendale Lake Road, Patton, PA 16668, USA 414 GLENDALE LAKE RD PATTON PA 16668",,
Cambridge Springs High School,Penncrest,10,Public,Senior High,10/20/11,316,167,149,641 VENANGO AVE,CAMBRIDGE SPRINGS,16403,Crawford,(814) 398-4631,(814) 398-8343,,Constance Youngblood,cyoungblood@pencrest.org,,David Nuhfer,dnuhfer@penncrest.org,,Clint Rauscher,crauscher@penncrest.org,,X,X,,X,X,X,,,,,,,,X,,X,X,,,X,,,,,,,,X,,X,,,X,,41.80054330000001,-80.06598259999998,"641 Venango Avenue, Cambridge Springs, PA 16403, USA 641 VENANGO AVE CAMBRIDGE SPRINGS PA 16403",,
Cambridge Springs Junior High School,Penncrest,10,Public,Junior High,10/20/11,283,121,162,641 VENANGO AVE,CAMBRIDGE SPRINGS,16403,Crawford,(814) 398-4631,(814) 398-8343,,Constance Youngblood,cyoungblood@pencrest.org,,David Nuhfer,dnuhfer@penncrest.org,,Clint Rauscher,crauscher@penncrest.org,,,X,,X,X,X,,,,,,,,X,,X,X,,,X,,,X,,,,,,,X,,,X,,41.80054330000001,-80.06598259999998,"641 Venango Avenue, Cambridge Springs, PA 16403, USA 641 VENANGO AVE CAMBRIDGE SPRINGS PA 16403",,
Cameron County High School,Cameron County,9,Public,Senior High,10/6/11,213,109,104,601 WOODLAND AVE,EMPORIUM,15834,Cameron,(814) 486-4000,(814) 486-4003,,Christine Holjencin,christine.holjencin@camcosd.org,,Lynn Newcomer,lynn.newcomer@camcosd.org,,Chris Horning,chris.horning@camcosd.org,,X,X,,,X,X,,,,,,,X,,,X,X,,,,,,X,,,,,,,X,,X,X,,41.5131933,-78.24596939999998,"601 Woodland Avenue, Emporium, PA 15834, USA 601 WOODLAND AVE EMPORIUM PA 15834",,
Cameron County Junior High School,Cameron County,9,Public,Junior High,10/6/11,164,91,73,601 WOODLAND AVE,EMPORIUM,15834,Cameron,(814) 486-4000,(814) 486-4003,,Christine Holjencin,christine.holjencin@camcosd.org,,Lynn Newcomer,lynn.newcomer@camcosd.org,,Chris Horning,chris.horning@camcosd.org,,,X,,,X,,,,,,,,,,,X,X,,,,,,,,,,,,,,,,X,,41.5131933,-78.24596939999998,"601 Woodland Avenue, Emporium, PA 15834, USA 601 WOODLAND AVE EMPORIUM PA 15834",,
Camp Hill High School,Camp Hill,3,Public,Senior High,10/3/11,300,149,151,100 S 24TH ST,CAMP HILL,17011,Cumberland,(717) 901-2500,(717) 901-2614,,Daved Reeder,dreeder@camphillsd.k12.pa.us,,Mark Ziegler,MZiegler@camphillsd.k12.pa.us,,Tony Beam,tbeam@camphillsd.k12.pa.us,,X,X,,X,X,X,,,,X,,X,X,,,X,X,,,X,X,X,X,,,,,X,,X,,X,,,40.2383546,-76.9254386,"100 South 24th Street, Camp Hill, PA 17011, USA 100 S 24TH ST CAMP HILL PA 17011",,
Camp Hill Middle School,Camp Hill,3,Public,Junior High,10/13/09,286,139,147,2401 Chestnut Street,CAMP HILL,17011,Cumberland,(717) 901-2450,(717) 901-2573,,Connie Kindler,ckindler@camphillsd.k12.pa.us,,Daniel Roesch,droesch@camphillsd.k12.pa.us,,Tony Beam,tbeam@camphillsd.k12.pa.us,,,X,,,X,,,,,X,,,,,,X,X,,,,X,,,,,,,,,,,,,,40.2386609,-76.9259318,"2401 Chestnut Street, Camp Hill, PA 17011, USA 2401 Chestnut Street CAMP HILL PA 17011",,
Canon McMillan High School,Canon Mcmillan,7,Public,Senior High,10/6/11,1189,589,600,314 ELM STREET EX,CANONSBURG,15317,Washington,(724) 745-1400,(724) 745-2258,http://WWW.CMSD.K12.PA.US,Michael Daniels,danielsm@cmsd.k12.pa.us,,David Helinski,,,Guy Montecalvo,montecalvog@cmsd.k12.pa.us,,X,X,,X,X,X,X,X,,X,X,X,X,X,,X,X,,,X,,X,,,X,,,X,,X,X,X,X,,40.2497847,-80.19374399999998,"Elm Street Extension, Canonsburg, PA 15317, USA 314 ELM STREET EX CANONSBURG PA 15317",,
Canonsburg Middle School,Canon Mcmillan,7,Public,Junior High,10/3/11,1175,582,593,25 E COLLEGE ST,CANONSBURG,15317,Washington,(724) 745-9030,(724) 873-5230,,Michael Daniels,danielsm@cmsd.k12.pa.us,,Greg Taranto,tarantog@cmsd.k12.pa.us,,Guy Montecalvo,,,,X,,X,X,,,,,X,X,,X,X,,X,X,,,X,,,,,,,,X,,X,X,X,X,,40.2603614,-80.18644159999997,"25 East College Street, Canonsburg, PA 15317, USA 25 E COLLEGE ST CANONSBURG PA 15317",,
Canton Area High School,Canton Area,4,Public,Senior High,10/27/11,243,110,133,509 E MAIN ST,CANTON,17724,Bradford,(570) 673-5134,(570) 673-5566,,Mathew Gordon,,,Craig Coleman,ccoleman@canton.k12.pa.us,,Robert Rockwell,brockwell@canton.k12.pa.us,,X,X,,X,X,,,,,,,,X,,,X,X,,X,X,,,,,,,,,,X,,X,X,,41.65586529999999,-76.84622100000001,"East Main Street, Canton, PA 17724, USA 509 E MAIN ST CANTON PA 17724",,
Canton Junior High School,Canton Area,4,Public,Junior High,10/27/11,227,106,121,509 E MAIN ST,CANTON,17724,Bradford,(570) 673-5134,(570) 673-5566,,Mathew Gordon,,,Craig Coleman,ccoleman@canton.k12.pa.us,,Robert Rockwell,brockwell@canton.k12.pa.us,,,X,,X,X,,,,,,,,X,,,X,X,,,X,,,,,,,,,,,,X,X,,41.65586529999999,-76.84622100000001,"East Main Street, Canton, PA 17724, USA 509 E MAIN ST CANTON PA 17724",,
Carbondale Area High School,Carbondale Area,2,Public,Senior High,10/11/11,383,178,205,101 Brooklyn St/Bus. Rt. 6,CARBONDALE,18407,Lackawanna,(570) 282-4500,(570) 282-3394,http://www.ca.k12.pa.us,Joseph Gorham,joseph.gorham@ca.k12.pa.us,,Joseph W Farrell,joseph.farrell@ca.k12.pa.us,,Erik Larson,erik.larson@ca.k12.pa.us,,X,X,,X,X,X,,,,X,,,X,,,,X,,,X,,,X,,,,,X,,,,X,,,41.5736935,-75.5018508,"Carbondale, PA, USA 101 Brooklyn St/Bus. Rt. 6 CARBONDALE PA 18407",,
Carbondale Area Junior High School,Carbondale Area,2,Public,Junior High,10/11/11,407,205,202,101 Brooklyn St./Business Rt. 6,CARBONDALE,18407,Lackawanna,(570) 282-4500,(570) 282-3394,http://ca.k12.pa.us,Dominick Famularo,dominick.famularo@ca.k12.pa.us,,Joseph W Farrell,joseph.farrell@ca.k12.pa.us,,Erik Larson,erik.elarson@ca.k12.pa.us,,X,X,,X,,,,,,X,,,X,,,,X,,,X,,,,,,,,X,,X,,X,,,41.5736935,-75.5018508,"Carbondale, PA, USA 101 Brooklyn St./Business Rt. 6 CARBONDALE PA 18407",,
Cardinal O'Hara High School,,12,Private,Senior High,10/11/11,1059,599,460,1701 S SPROUL ROAD,SPRINGFIELD,19064,Delaware,(610) 544-3800,(610) 544-7625,,,,,Marie K. Rogai,mrogai@cohs.com,,Stephen F Langley,slangley@cohs.com,,X,X,X,X,X,X,X,X,,X,X,X,X,X,,X,X,X,X,X,X,X,X,,X,X,,X,,X,X,X,X,,39.9469199,-75.34914700000002,"1701 Sproul Road, Springfield, PA 19064, USA 1701 S SPROUL ROAD SPRINGFIELD PA 19064",,
CARDINAL WUERL NORTH CATHOLIC,,7,Private,Senior High,10/14/11,175,77,98,1400 TROY HILL RD,PITTSBURGH,15212,Allegheny,(412) 321-4823,(412) 321-0599,,Robert Paserba,,,Kellie G Abbott,kabbott@cwnchs.org,,Michael C Burrell,mburrell@cwnchs.org,,X,X,,,X,,,,,,,,,,,X,X,,,,,,,,,,,,,X,,,X,,40.4601089,-79.98535300000003,"1400 Troy Hill Road, Pittsburgh, PA 15212, USA 1400 TROY HILL RD PITTSBURGH PA 15212",,
Carl Sandburg Middle School,Neshaminy,1,Public,Junior High,10/4/11,569,281,288,30 HARMONY RD,LEVITTOWN,19056,Bucks,(215) 809-6220,(215) 809-6701,,Robert Copeland,,,Dawn Kelly,,,Billy Johns,bjohns@neshaminy.k12.pa.us,,X,X,,,X,,,,,X,,,X,,,X,X,,,,X,,,,,,,X,,X,,X,,,40.16521669999999,-74.8862954,"30 Harmony Road, Levittown, PA 19056, USA 30 HARMONY RD LEVITTOWN PA 19056",,
Carlisle  High School,Carlisle Area,3,Public,Senior High,10/3/11,1213,619,594,623 W PENN ST,CARLISLE,17013,Cumberland,(717) 240-6800,(717) 240-0532,http://www.carlisleschools.org,John W. Friend,friendj@carlisleschools.org,,Jay Rauscher,rauscherj@carlisleschools.org,,George Null,nullg@carlisleschools.org,,X,X,,X,X,X,X,X,,X,X,X,X,X,,X,X,,X,X,X,X,X,,X,X,,X,,X,X,X,X,,40.21037099999999,-77.206838,"623 West Penn Street, Carlisle, PA 17013, USA 623 W PENN ST CARLISLE PA 17013",,
Carlisle Middle School,Carlisle Area,3,Public,Junior High,10/3/11,1195,584,611,623 W PENN ST,CARLISLE,17013,Cumberland,(717) 240-6800,(717) 240-0532,http://WWW.CARLISLESCHOOLS.ORG,John W. Friend,friendj@carlisleschools.org,,Keith Colestock,colestockk@carlisleschools.org,,George Null,nullg@carlisleschools.org,,,X,,X,,,,,,X,,,,,,X,X,,,X,X,,,,,,,X,,,,,X,,40.21037099999999,-77.206838,"623 West Penn Street, Carlisle, PA 17013, USA 623 W PENN ST CARLISLE PA 17013",,
Carlynton High School,Carlynton,7,Public,Senior High,10/4/11,339,157,182,435 KINGS HWY,CARNEGIE,15106,Allegheny,(412) 429-2500,(412) 429-2508,http://www.carlynton.k12.pa.us,Gary Peiffer,gary.peiffer@carlynton.k12.pa.us,,Mike Loughren,michael.loughren@carlynton.k12.pa.us,,Nate Milsom,nathan.milsom@carlynton.k12.pa.us,,X,X,X,,X,X,,,,X,X,X,X,,,X,X,X,,,,X,,,,,,X,,X,X,X,X,,40.4275218,-80.0948712,"435 Kings Highway, Carnegie, PA 15106, USA 435 KINGS HWY CARNEGIE PA 15106",,
Carlynton Junior High School,Carlynton,7,Public,Junior High,10/4/11,364,179,185,435 KINGS HWY,CARNEGIE,15106,Allegheny,(412) 429-2500,(412) 429-2508,http://www.carlynton.k12.pa.us,Gary Peiffer,gary.peiffer@carlynton.k12.pa.us,,Mike Loughren,michael.loughren@carlynton.k12.pa.us,,Nate Milsom,nathan.milsom@carlynton.k12.pa.us,,,X,,,X,,,,,X,X,,X,,,X,X,,,,,,,,,,,X,,,X,X,X,,40.4275218,-80.0948712,"435 Kings Highway, Carnegie, PA 15106, USA 435 KINGS HWY CARNEGIE PA 15106",,
Carmichaels Area High School,Carmichaels Area,7,Public,Senior High,10/3/11,250,126,124,300 W GREENE ST,CARMICHAELS,15320,Greene,(724) 966-5045,(724) 966-5556,http://carmarea.org,Craig Baily,cbaily@carmarea.org,,John V Menhart,jmenhar@carmarea.org,,John E Krajnak,jkrajnak@carmarea.org,,X,X,,,X,X,,,,,,,,,,,X,,,,,,,,,,,,,X,,,X,,39.8965584,-79.97807190000003,"300 West Greene Street, Carmichaels, PA 15320, USA 300 W GREENE ST CARMICHAELS PA 15320",,
Carmichaels Area Junior High School,Carmichaels Area,7,Public,Junior High,10/2/09,244,121,123,300 W GREENE ST,CARMICHAELS,15320,Greene,(724) 966-5045,(724) 966-5556,http://www.carmarea.org,Craig Baily,cbaily@carmarea.org,,John V Menhart,jmenhar@carmarea.org,,John E Krajnak,jkrajnak@carmarea.org,,,X,,,X,,,,,,,,,,,,X,,,,,,,,,,,,,X,,,X,,39.8965584,-79.97807190000003,"300 West Greene Street, Carmichaels, PA 15320, USA 300 W GREENE ST CARMICHAELS PA 15320",,
Carrick High School,Pittsburgh,8,Public,Senior High,10/17/11,793,406,387,125 PARKFIELD ST,PITTSBURGH,15210,Allegheny,(412) 885-7700,(412) 885-7708,,Linda Lane,,,Dennis Chakey,,,Pat Schlemmer,pschlemmer1@pghboe.net,,X,X,,X,X,X,,,,X,X,X,X,X,,X,X,,,X,,X,,,,,,X,,X,X,X,X,,40.390761,-79.98933899999997,"125 Parkfield Street, Pittsburgh, PA 15210, USA 125 PARKFIELD ST PITTSBURGH PA 15210",,
Carson Long Military Academy,,3,Private,Senior High,10/7/11,43,0,43,200 N CARLISLE ST,NEW BLOOMFIELD,17068,Perry,(717) 582-2121,(717) 582-8763,http://www.carsonlong.org,David Pearson,david.pearson@carsonlong.org,,David M Comolli,david.comolli@carsonlong.org,,Mark R Sommerville,mark.sommerville@carsonlong.org,,X,X,,,X,,,,X,X,,X,X,,,,,,,,,,,,,,,,,,,,,,40.4218301,-77.18907139999999,"200 North Carlisle Street, Carson Long Institute, New Bloomfield, PA 17068, USA 200 N CARLISLE ST NEW BLOOMFIELD PA 17068",,
Carson Middle School,North Allegheny,7,Public,Junior High,10/17/11,699,317,382,200 HILLVUE LN,PITTSBURGH,15237,Allegheny,(412) 369-5520,(724) 934-7296,,Ray Gualtieri,rgualtieri@northallegheny.org,,Katherine Jenkins,kjenkins@northallegheny.org,,Robert F Bozzuto,bbozzuto@northallegheny.org,,X,X,,X,X,,,,,X,,X,X,X,,X,X,,,X,X,X,,,,,,X,,X,,X,X,,40.5655787,-80.0320476,"200 Hillvue Lane, Pittsburgh, PA 15237, USA 200 HILLVUE LN PITTSBURGH PA 15237",,
Catasauqua High School,Catasauqua Area,11,Public,Senior High,10/5/11,417,190,227,2500 W BULLSHEAD RD,NORTHAMPTON,18067,Northampton,(610) 697-0111,(610) 697-0116,,Robert Spengler,spenglerr@cattysd.org,,David Ascani,ascanid@cattysd.org,,Thomas Moll,mollt@cattysd.org,,X,X,,X,X,,,,,X,,,X,,,X,X,,X,X,X,,,,,,,X,,,,X,X,,40.6752282,-75.4668643,"West Bullshead Road, Northampton, PA 18067, USA 2500 W BULLSHEAD RD NORTHAMPTON PA 18067",,
Catasauqua Middle School,Catasauqua Area,11,Public,Junior High,10/28/11,399,188,211,850 PINE ST,CATASAUQUA,18032,Lehigh,(610) 264-4341,(610) 264-5458,,Robert Spengler,,,Melissa Inselmann,,,Thomas Moll,,,,X,,,X,,,,,X,,,,,,X,X,,,,X,,,,,,,X,,,,,,,40.658721,-75.46427299999999,"850 Pine Street, Catasauqua, PA 18032, USA 850 PINE ST CATASAUQUA PA 18032",,
Cathedral Preparatory School,,10,Private,Senior High,10/3/11,433,0,433,225 W 9TH ST,ERIE,16501,Erie,(814) 453-7737,(814) 455-3985,http://www.cathedral-prep.com,Father nick Rouch,,,Scott Jabo,Scott.Jabo@prep-villa.com,,Bill Flanagan,bill.flanagan@prep-villa.com,,X,X,,X,X,X,X,X,,X,X,X,X,,X,X,,,,,,,,,,,,,,,,,,,42.1246505,-80.08842620000001,"225 West 9th Street, Erie, PA 16501, USA 225 W 9TH ST ERIE PA 16501",,
Cecelia Snyder Middle School,Bensalem Township,1,Public,Junior High,10/4/11,455,182,273,3330 HULMEVILLE RD,BENSALEM,19020,Bucks,(215) 750-2800,(215) 244-2851,,David Baugh,dbaugh@bensalemsd.org,,Thomas Evert,tevert@bensalemsd.org,,Bradley Fay,bfay@bensalemsd.org,,X,X,,,X,,,,,X,,,X,,,X,X,,,,X,,,,,,,X,,X,,X,,,40.1008788,-74.94186869999999,"3330 Hulmeville Road, Bensalem, PA 19020, USA 3330 HULMEVILLE RD BENSALEM PA 19020",,
Cedar Cliff High School,West Shore,3,Public,Senior High,10/3/11,1023,512,511,1301 CARLISLE RD,CAMP HILL,17011,Cumberland,(717) 737-8654,(717) 737-0874,http://www.wssd.k12.pa.us,Jemry L. Small,jsmall@wssd.k12.pa.us,,Kevin Fillgrove,kfillgrove@wssd.k12.pa.us,,Ken Roseberry,kroseberry@wssd.k12.pa.us,,X,X,,X,X,X,,,,X,X,X,X,X,,X,X,,X,X,X,X,X,,,,,X,,X,X,X,X,,40.2307958,-76.89552979999996,"1301 Carlisle Road, Camp Hill, PA 17011, USA 1301 CARLISLE RD CAMP HILL PA 17011",,
Cedar Crest High School,Cornwall Lebanon,3,Public,Senior High,10/11/11,1231,596,635,115 E EVERGREEN RD,LEBANON,17042,Lebanon,(717) 272-2033,(717) 389-1823,http://www.clsd.k12.pa.us,Philip Domencic,pdomencic@clsd.k12.pa.us,,Nicole Malinoski,nmalinoski@clsd.k12.pa.us,,Rob Snyder,rsnyder@clsd.k12.pa.us,,X,X,X,X,X,X,,X,,X,X,X,X,X,,X,X,X,X,X,X,X,X,,,X,,X,,X,X,X,X,,40.3100567,-76.39878799999997,"115 East Evergreen Road, Lebanon, PA 17042, USA 115 E EVERGREEN RD LEBANON PA 17042",,
Cedar Crest Middle School,Cornwall Lebanon,3,Public,Junior High,10/11/11,1113,539,574,101 E EVERGREEN RD,LEBANON,17042,Lebanon,(717) 272-2032,(717) 228-1437,http://www.clsd.k12.pa.us/ms,Philip Domencic,pdomencic@clsd.k12.pa.us,,Mariah Rackley,mrackley@clsd.k12.pa.us,,Rob Snyder,rsnyder@clsd.k12.pa.us,,,X,,X,X,,,,,X,,,X,,,X,X,,,X,X,,,,,,,X,,,,X,,,40.3086309,-76.40460300000001,"101 East Evergreen Road, Lebanon, PA 17042, USA 101 E EVERGREEN RD LEBANON PA 17042",,
Cedarbrook Middle School,Cheltenham Township,1,Public,Junior High,10/15/09,706,364,342,300 LONGFELLOW AVE,WYNCOTE,19095,Montgomery,(215) 881-6427,(215) 576-5610,,Eileen Wolf,ewolf@cheltenham.org,,Iris Parker,,,David Jones,djones@cheltenham.org,,X,X,,,X,,,,,X,,X,X,,,X,X,,,,X,X,,,,X,,X,,X,,X,,,40.082017,-75.15876459999998,"300 Longfellow Road, Wyncote, PA 19095, USA 300 LONGFELLOW AVE WYNCOTE PA 19095",,
Centerville Middle School,Hempfield,3,Public,Junior High,10/14/11,647,314,333,865 CENTERVILLE RD,LANCASTER,17601,Lancaster,(717) 898-5580,(717) 898-5647,,,,,James Dague,jim_dague@hempfieldsd.org,,Stephen R Mummaw,steve_mummaw@hempfieldsd.org,,,X,,X,X,,,X,,X,,,X,,,X,X,,,X,X,,,,,X,,X,,,,X,,,40.065257,-76.39317,"865 Centerville Road, Lancaster, PA 17601, USA 865 CENTERVILLE RD LANCASTER PA 17601",,
Central Bucks East High School,Central Bucks,1,Public,Senior High,10/6/11,1656,852,804,2804 HOLICONG RD,DOYLESTOWN,18902,Bucks,(267) 893-2327,(267) 893-5942,http://www.cbsd.org/cb-east/,David Weitzel,,,Abram M Lucabaugh,alucabaugh@cbsd.org,,John M Reading,jreading@cbsd.org,,X,X,,X,X,X,X,X,,X,X,X,X,X,,X,X,,,X,X,X,X,,X,X,,X,,X,X,X,X,,40.3407655,-75.05624089999998,"2804 Holicong Road, Doylestown, PA 18902, USA 2804 HOLICONG RD DOYLESTOWN PA 18902",,
Central Bucks South High School,Central Bucks,1,Public,Senior High,10/3/11,1891,913,978,1100 FOLLY ROAD,WARRINGTON,18976,Bucks,(267) 893-3006,(267) 893-3190,http://www.cbsd.org,,,,Scott Davidheiser,sdavidheiser@cbsd.org,,Dave Rackovan,drackovan@cbsd.org,,X,X,,X,X,X,X,X,,X,X,X,X,X,,X,X,,,X,X,X,X,,X,X,,X,,X,X,X,X,,40.2620874,-75.1604734,"1100 Folly Road, Warrington, PA 18976, USA 1100 FOLLY ROAD WARRINGTON PA 18976",,
Central Bucks West High School,Central Bucks,1,Public,Senior High,10/3/11,1466,755,711,375 W COURT ST,DOYLESTOWN,18901,Bucks,(267) 893-2500,(267) 893-5822,http://cbsd.org,David Weitzel,DWEITZEL@CBSD.ORG,,Jason Bucher,jbucher@cbsd.org,,Sean J. Kelly,sjkelly@cbsd.org,,X,X,,X,X,X,X,X,,X,X,X,X,X,,X,X,,X,X,X,X,X,,X,X,,X,,,X,X,X,,40.3044489,-75.13773809999998,"375 West Court Street, Doylestown, PA 18901, USA 375 W COURT ST DOYLESTOWN PA 18901",,
Central Cambria High School,Central Cambria,6,Public,Senior High,10/3/11,409,203,206,204 SCHOOLHOUSE RD,EBENSBURG,15931,Cambria,(814) 472-8860,(814) 472-8886,,Vincent Dileo,vdileo@cencam.org,,Kimberly Mcdermott,kmcdermott@cencam.org,,Ron Stempka,rstempka@cencam.org,,X,X,,X,X,X,,,,X,X,X,X,,,X,X,,,X,,,X,,,,,X,,X,X,X,X,,40.489877,-78.73814540000001,"204 Schoolhouse Road, Ebensburg, PA 15931, USA 204 SCHOOLHOUSE RD EBENSBURG PA 15931",,
Central Cambria Middle School,Central Cambria,6,Public,Junior High,10/5/11,438,215,223,206 SCHOOLHOUSE ROAD,EBENSBURG,15931,Cambria,(814) 472-6505,(814) 472-4187,,Vincent Deleo,,,Kim Mcdermott,kmcdermott@cchs.k12.pa.us,,Ronald Stempka,,,,X,,X,X,,,,,,,,X,,,X,X,,,X,,,,,,,,,,,,X,X,,40.4898846,-78.73812069999997,"206 Schoolhouse Road, Ebensburg, PA 15931, USA 206 SCHOOLHOUSE ROAD EBENSBURG PA 15931",,
Central Catholic High School,,7,Private,Senior High,10/3/11,644,0,644,4720 FIFTH AVE,PITTSBURGH,15213,Allegheny,(412) 208-3421,(412) 208-0555,http://www.pittcentralcatholic.org,Robert L Paserba,bpaserba@diopitt.org,,Robert J. Schaefer,principal@centralcatholichs.com,,Chuck Crummie,ccrummie@centralcatholichs.com,,X,X,X,X,X,X,X,X,,X,X,X,X,X,,X,,,,,,,,,,,,,,,,,,,40.4468318,-79.9460704,"4720 Fifth Avenue, Pittsburgh, PA 15213, USA 4720 FIFTH AVE PITTSBURGH PA 15213",,
Central Catholic Middle School,,9,Private,Junior High,10/10/11,80,45,35,PO Box 567,DUBOIS,15801,Clearfield,(814) 371-3060,(814) 371-3215,http://www.cchs.pvt.k12.pa.us,,,,Dawn Bressler,dbressler@duboiscatholic.com,,John Wineberg,jwineberg@duboiscatholic.com,,,X,,,,,,,X,X,,,,,,,X,,,,,,,,,,X,,,X,,,X,,41.1210115,-78.7583257,"DuBois, PA 15801, USA PO Box 567 DUBOIS PA 15801",,
Central Columbia High School,Central Columbia,4,Public,Senior High,10/12/11,468,213,255,4777 OLD BERWICK ROAD,BLOOMSBURG,17815,Columbia,(570) 784-2850,(570) 784-0863,http://www.ccsd.cc,Harry Mathias,HMATHIAS@CCSD.CC,,Jeff Groshek,JGROSHEK@CCSD.CC,,Kevin Morgan,kmorgan@ccsd.cc,,X,X,X,X,X,X,,,,X,X,X,X,,,X,X,X,,X,X,X,X,,,,,X,,X,X,X,,,41.0251594,-76.35916470000001,"4777 Old Berwick Road, Bloomsburg, PA 17815, USA 4777 OLD BERWICK ROAD BLOOMSBURG PA 17815",,
Central Columbia Middle School,Central Columbia,4,Public,Junior High,10/10/11,464,237,227,4777 OLD BERWICK RD,BLOOMSBURG,17815,Columbia,(570) 784-2850,(570) 387-0192,,Harry Mathias,HMATHIAS@CCSD.CC,,Chad Heintzelman,CHEINTZE@CCSD.CC,,Kevin Morgan,kmorgan@ccsd.cc,,,X,,X,X,,,,,,,,,,,X,X,,,X,X,,,,,,,,,,,,,,41.0251594,-76.35916470000001,"4777 Old Berwick Road, Bloomsburg, PA 17815, USA 4777 OLD BERWICK RD BLOOMSBURG PA 17815",,
Central Dauphin East High School,Central Dauphin,3,Public,Senior High,10/14/11,1282,625,657,626 RUTHERFORD RD,HARRISBURG,17109,Dauphin,(717) 541-1662,(717) 214-5073,http://CDSCHOOLS.ORG,Carol Jonhson,cjohnson@cdschools.org,,"Jesse Rawls, jr.",jrawls@cdschools.org,,Greg Goldthorp,ggoldthorp@cdschools.org,,X,X,,X,X,X,X,X,,X,X,X,X,X,,X,X,,X,X,X,X,X,,X,X,,X,,X,X,X,X,,40.2849757,-76.79748660000001,"626 Rutherford Road, Harrisburg, PA 17109, USA 626 RUTHERFORD RD HARRISBURG PA 17109",,
Central Dauphin East Middle School,Central Dauphin,3,Public,Junior High,10/13/11,635,337,298,628 RUTHERFORD RD,HARRISBURG,17109,Dauphin,(717) 545-4709,(717) 657-4987,,Carol Johnson,cjohnson@cdschools.org,,Christine Miller,cmiller@cdschools.org,,Greg Goldthorp,ggoldthorp@cdschools.org,,,X,,X,,,,,,X,,,X,,,,X,,,X,X,,,,,,,,,,,X,,,40.2821256,-76.7988052,"628 Rutherford Road, Harrisburg, PA 17111, USA 628 RUTHERFORD RD HARRISBURG PA 17109",,
Central Dauphin High School,Central Dauphin,3,Public,Senior High,10/14/11,1547,717,830,437 PIKETOWN RD,HARRISBURG,17112,Dauphin,(717) 703-5360,(717) 703-5732,,Carol Johnson,cjohnson@cdschools.org,,Ken Miller,kmiller@cdschools.org,,John Confer,jconfer@cdschools.org,,X,X,,X,X,X,X,X,,X,X,X,X,X,,X,X,,X,X,X,X,X,,X,X,,X,,X,X,X,X,,40.348933,-76.76299569999998,"437 Piketown Road, Harrisburg, PA 17112, USA 437 PIKETOWN RD HARRISBURG PA 17112",,
Central Dauphin Middle School,Central Dauphin,3,Public,Junior High,10/13/11,741,340,401,4600 LOCUST LANE,HARRISBURG,17109,Dauphin,(717) 540-4606,(717) 214-5055,,Carol Johnson,cjohnson@cdschools.org,,Jeff Matzner,jmatzner@cdschools.org,,John Confer,jconfer@cdschools.org,,,X,,X,,,,,,X,,,X,,,,X,,,X,X,,,,,,,X,,,,X,,,40.294974,-76.81187599999998,"4600 Locust Lane, Harrisburg, PA 17109, USA 4600 LOCUST LANE HARRISBURG PA 17109",,
Central High School,Spring Cove,6,Public,Senior High,10/13/11,438,227,211,718 Central High Road,Martinsburg,16662,Blair,(814) 793-2111,(814) 793-4942,http://scsd.k12.pa.us,Robert Vadella,rvadella@scsd.k12.pa.us,,Dave Crumrine,dcrumrine@scsd.k12.pa.us,,Chuck Gojmerac,cgojmerac@scsd.k12.pa.us,,X,X,,X,X,X,,,,X,,,X,X,,X,X,,,X,,X,,,,,,X,,X,,X,X,,40.3111875,-78.32417950000001,"Martinsburg, PA 16662, USA 718 Central High Road Martinsburg PA 16662",,
Central High School,Philadelphia,12,Public,Senior High,10/28/11,1824,954,870,1700 W OLNEY AVENUE,PHILADELPHIA,19141,Philadelphia,(215) 276-5262,(215) 276-4721,http://centralhigh.net,,,,Timothy Mckenna,tmckenna@philasd.org,,Rich Drayton,rdraytonjr@philasd.org,,X,X,X,X,X,X,X,,,X,X,X,X,X,,X,X,X,X,X,X,X,X,,X,,,X,,X,X,X,X,,40.037386,-75.15077500000001,"1700 West Olney Avenue, Philadelphia, PA 19141, USA 1700 W OLNEY AVENUE PHILADELPHIA PA 19141",,
Central Mountain High School,Keystone Central,6,Public,Senior High,10/14/11,1023,501,522,64 KEYSTONE CENTRAL DR,MILL HALL,17751,Clinton,(570) 893-4646,(570) 893-4640,,,,,Karen Probst,,,Steven A Turchetta,sturchet@kcsd.us,,X,X,,X,X,X,,,,X,X,X,X,,,X,X,,,X,,X,X,,,,,X,,X,X,X,X,,41.114667,-77.50784599999997,"64 Keystone Central Drive, Mill Hall, PA 17751, USA 64 KEYSTONE CENTRAL DR MILL HALL PA 17751",,
Central Mountain Middle School,Keystone Central,6,Public,Junior High,10/1/09,949,466,483,200 BEN AVENUE,MILL HALL,17751,Clinton,(570) 726-3141,(570) 726-7227,http://kcsd@oak.k12.pa.us,Kelly Hasting,,,Norman Palovcsik,,,Paula Lupold,,,,X,,,X,,,,,X,,,X,,,X,X,,,,,,,,,,,,,X,,X,,,41.1090414,-77.4946746,"200 Ben Avenue, Mill Hall, PA 17751, USA 200 BEN AVENUE MILL HALL PA 17751",,
Central Tech High School,Erie City,10,Public,Senior High,10/14/11,972,511,461,3325 CHERRY ST,ERIE,16508,Erie,(814) 874-6200,(814) 874-6207,,Jay Badams,,,Matthew Pundt,mpundt@eriesd.org,,Greg Holland,gholland@eriesd.org,,X,X,,X,X,X,,,,X,X,,X,,,X,X,X,,X,,X,,,,,,X,,X,X,X,X,,42.10193599999999,-80.081977,"3325 Cherry Street, Erie, PA 16508, USA 3325 CHERRY ST ERIE PA 16508",,
Central Valley High School,Center Area,7,Public,Senior High,10/3/11,650,309,341,160 Baker Road Ext.,Monaca,15061,Beaver,(724) 775-4300,(724) 775-6560,,Nicholas D Perry,nperry@centralvalleysd.org,,Shawn Mccreary,smccreary@centralvalleysd.org,,Sam Cercone,scercone@centralvalleysd.org,,X,X,X,X,X,X,,,,X,,X,X,,,X,X,X,,X,,X,X,X,,,,X,,X,,X,X,,40.6612981,-80.3042519,"160 Baker Road Ext, Monaca, PA 15061, USA 160 Baker Road Ext. Monaca PA 15061",,
Central Valley Middle School,Center Area,7,Public,Junior High,10/13/11,635,313,322,1500 Allen Avenue,MONACA,15061,Beaver,(724) 775-5600,(724) 775-3633,http://www.casd.k12.pa.us,Nicholas Perry,nperry@centralvalleysd.org,,Michael Mccullough,,,Sam Cercone,scercone@centralvalleysd.org,,X,X,,,X,,,,,X,,,X,,,X,X,,,,,,,,,,,X,,X,,X,X,,40.68132900000001,-80.27317399999998,"1500 Allen Avenue, Monaca, PA 15061, USA 1500 Allen Avenue MONACA PA 15061",,
Central York High School,Central York,3,Public,Senior High,10/5/11,1372,675,697,601 MUNDIS MILL RD,YORK,17406,York,(717) 846-6789,(717) 840-2705,,Michael Snell,msnell@cysd.k12.pa.us,,Ryan Caufman,rcaufman@cysd.k12.pa.us,,Marty L Trimmer,mtrimmer@cysd.k12.pa.us,,X,X,,X,X,X,X,X,,X,X,X,X,X,X,X,X,,X,X,X,X,X,,X,X,,X,,X,X,X,X,X,40.0172219,-76.70322299999998,"601 Mundis Mill Road, York, PA 17406, USA 601 MUNDIS MILL RD YORK PA 17406",,
Central York Middle School,Central York,3,Public,Junior High,10/5/11,1384,707,677,1950 N HILLS RD,YORK,17406,York,(717) 846-6789,(717) 755-4420,http://www.cysd.k12.pa.us,Michael Snell,,,Edmund Mcmanama,emcmanama@cysd.k12.pa.us,,Marty Trimmer,mtrimmer@cysd.k12.pa.us,,,X,,X,X,,,,,X,,,X,X,,X,X,,,X,X,,,,,,,X,,,,X,X,,39.989603,-76.69610399999999,"1950 North Hills Road, York, PA 17406, USA 1950 N HILLS RD YORK PA 17406",,
Chambersburg Area High School,Chambersburg Area,3,Public,Senior High,10/11/11,2148,1051,1097,511 S 6TH ST,CHAMBERSBURG,17201,Franklin,(717) 267-4460,(717) 261-4258,http://www.chambersburg.k12.PA.US,Joseph Padasak,joseph.padasak@casdonline.org,,Burdette Chapel,burdette.chapel@casdonline.org,,Donald J Folmar,donald.folmar@casdonline.org,,X,X,,X,X,X,,X,,X,X,X,X,X,,X,X,,X,X,X,X,X,X,,X,,X,,X,X,X,X,,39.9270548,-77.65130829999998,"511 South 6th Street, Chambersburg, PA 17201, USA 511 S 6TH ST CHAMBERSBURG PA 17201",,
Chambersburg Area Middle School North,Chambersburg Area,3,Public,Junior High,10/13/11,2088,1038,1050,1957 SCOTLAND AVE,CHAMBERSBURG,17201,Franklin,(717) 261-3366,(717) 261-3379,,Joseph Padasak,joseph.padasak@casdonline.org,,Kurt Widmann,kurt.widmann@casdonline.org,,Chris Buhrman,chris.buhrman@casdonline.org,,,X,,X,X,,,,,X,,,X,,,X,X,,,X,X,,,,,,,X,,,,X,X,,39.955879,-77.63605749999999,"1957 Scotland Avenue, Chambersburg, PA 17201, USA 1957 SCOTLAND AVE CHAMBERSBURG PA 17201",,
Charleroi Area High School,Charleroi,7,Public,Senior High,10/13/11,405,189,216,100 FECSEN DR,CHARLEROI,15022,Washington,(724) 483-3573,(724) 483-2294,http://WWW.CHARLEROISD.ORG,Brad A Ferko,bferko@charleroisd.org,,Patricia L Mason,pmason@charleroisd.org,,Bill Wiltz,bwiltz@charleroisd.org,,X,X,,,X,X,,,,X,,,X,,,X,X,,,,,,,,,,,X,,X,,X,X,,40.1559287,-79.91881239999998,"100 Fecsen Drive, Charleroi, PA 15022, USA 100 FECSEN DR CHARLEROI PA 15022",,
Charleroi Area Middle School,Charleroi,7,Public,Junior High,10/13/11,384,192,192,100 FECSEN DR,CHARLEROI,15022,Washington,(724) 483-3600,(724) 489-9128,,Brad Ferko,bferko@charleroisd.org,,Mary Tickner,mtickner@charleroisd.org,,Bill Wiltz,bwiltz@charleroisd.org,,,X,,,X,,,,,X,,,X,,,X,X,,,,,,,,,,,X,,X,,X,X,,40.1559287,-79.91881239999998,"100 Fecsen Drive, Charleroi, PA 15022, USA 100 FECSEN DR CHARLEROI PA 15022",,
Charles A Huston Middle School,Burrell,7,Public,Junior High,10/6/11,458,235,223,1020 PUCKETY CHURCH RD,LOWER BURRELL,15068,Westmoreland,(724) 334-1443,(724) 334-1434,http://wiu.k12.pa.us/burrell/,Shannon Wagner,swagner@wiu.k12.pa.us,,Brian Ferra,bferra@wiu.k12.pa.us,,Brian Ferra,bferra@wiu.k12.pa.us,,,X,,,X,,,,,X,,,,,,X,X,,,,,,,,,,,X,,X,,,X,,40.579863,-79.70017789999997,"1020 Puckety Church Road, New Kensington, PA 15068, USA 1020 PUCKETY CHURCH RD LOWER BURRELL PA 15068",,
Charles Boehm Middle School,Pennsbury,1,Public,Junior High,10/13/09,756,378,378,866 BIG OAK RD,YARDLEY,19067,Bucks,(215) 428-4220,,http://www.pennsbury.k12.pa.us,Paul B Long,,,Theresa Ricci,,,Curt Stanley,,,X,X,,,X,,,,,X,,,X,,,X,X,,,,X,,,,,,,,,X,,X,X,,40.2087464,-74.82774039999998,"866 Big Oak Road, Morrisville, PA 19067, USA 866 BIG OAK RD YARDLEY PA 19067",,
Charles F Patton Middle School,Unionville-Chadds Ford,1,Public,Junior High,10/5/11,1007,499,508,760 UNIONVILLE RD,KENNETT SQUARE,19348,Chester,(610) 347-2000,(610) 347-0421,http://www.fpms.ucfsd.org,John Sanville,jsanville@ucfsd.org,,Tim Hoffman,thoffman@ucfsd.net,,Jerry Little,jlittle@ucfsd.net,,X,X,,X,X,,,X,,X,,,X,,,X,X,,,X,X,,,,,X,,X,,X,,X,X,,39.88611400000001,-75.71839699999998,"760 Unionville Road, Kennett Square, PA 19348, USA 760 UNIONVILLE RD KENNETT SQUARE PA 19348",,
Chartiers Houston High School,Chartiers Houston,7,Public,Senior High,10/3/11,325,163,162,2050 W PIKE ST,HOUSTON,15342,Washington,(724) 745-3350,(724) 745-3495,,John George,john.george@chartiers-houstonsd.com,,Philip Mary,philip.mary@chartiers-houstonsd.com,,Kurt Kesneck,kurt.kesneck@chartiers-houstonsd.com,,X,X,,X,X,X,,,,X,,X,X,,,X,X,,X,X,,,,,,,,X,,X,,X,X,,40.2314286,-80.2156458,"2050 West Pike Street, Houston, PA 15342, USA 2050 W PIKE ST HOUSTON PA 15342",,
Chartiers Houston Junior High School,Chartiers Houston,7,Public,Junior High,10/3/11,261,114,147,2050 W PIKE ST,HOUSTON,15342,Washington,(724) 745-3350,(724) 745-3495,,John George,john.george@chartiers-houstonsd.com,,Philip Mary,philip.mary@chartiers-houstonsd.com,,Kurt Kesneck,kurt.kesneck@chartiers-houstonsd.com,,,X,,,X,,,,,X,,,X,,,X,X,,X,,,,,,,,,,,X,,X,X,,40.2314286,-80.2156458,"2050 West Pike Street, Houston, PA 15342, USA 2050 W PIKE ST HOUSTON PA 15342",,
Chartiers Valley High School,Chartiers Valley,7,Public,Senior High,10/3/11,872,448,424,50 THOMS RUN RD,BRIDGEVILLE,15017,Allegheny,(412) 429-2244,(412) 429-3754,http://www.cvsd.net,Brian White,BWHITE@CVSD.NET,,Thomas Samosky,tsamosky@cvsd.net,,"Frank Vulcano, jr.",fvulcano@cvsd.net,,X,X,X,X,X,X,X,X,,X,X,X,X,,,X,X,X,,X,,X,,,X,X,,X,,X,X,X,X,,40.383745,-80.10751100000004,"50 Thoms Run Road, Bridgeville, PA 15017, USA 50 THOMS RUN RD BRIDGEVILLE PA 15017",,
Chartiers Valley Middle School,Chartiers Valley,7,Public,Junior High,10/3/11,805,380,425,50 THOMS RUN RD,BRIDGEVILLE,15017,Allegheny,(412) 429-2220,(412) 429-2226,http://w.cvsd.net,Brian White,bwhite@cvsd.net,,John Ackermann,joackermann@cvsd.net,,Frank Vulcano,fvulcano@cvsd.net,,,X,,X,X,,,,,X,X,,X,,,X,X,,,X,,,,,,,,X,,X,X,X,X,,40.383745,-80.10751100000004,"50 Thoms Run Road, Bridgeville, PA 15017, USA 50 THOMS RUN RD BRIDGEVILLE PA 15017",,
Cheltenham High School,Cheltenham Township,1,Public,Senior High,10/4/11,1137,575,562,500 RICES MILL RD,WYNCOTE,19095,Montgomery,(215) 517-3720,(215) 881-6401,http://www.cheltenham.org,Natalie Thomas,nthomas@cheltenham.org,,Andrew Kuhn,akuhn@cheltenham.org,,Scott Layer,slayer@cheltenham.org,,X,X,,X,X,X,X,X,,X,X,X,X,X,,X,X,,,X,X,X,X,,X,X,,X,,X,X,X,X,,40.0859349,-75.15793150000002,"500 Rices Mill Road, Wyncote, PA 19095, USA 500 RICES MILL RD WYNCOTE PA 19095",,
Chester Community Charter Middle School,Chester Upland,1,Charter,Junior High,10/16/09,13,0,13,214 East 5th Street,CHESTER,19013,Delaware,(610) 447-0400,(610) 494-3056,,,,,Donald Odom,dodom@chestercommunitycharter.org,,,,,,X,,,,,,,,,,,,,,,,,,,,,,,,,,,,,,,,,39.850019,-75.35754299999996,"214 East 5th Street, Chester, PA 19013, USA 214 East 5th Street CHESTER PA 19013",,
Chester High School,Chester Upland,1,Public,Senior High,10/24/11,1148,531,617,200 W 9TH ST,CHESTER,19013,Delaware,(610) 447-3700,(610) 447-3682,,Gregory C. Shannon,gshannon@chesteruplandsd.org,,Constance Mcalister,cmcalister@chesteruplandsd.org,,Jeffrey R Legette,jlegette@chesteruplandsd.org,,X,X,,X,X,,X,,,,,X,X,,,,X,,,X,,X,,,X,,,,,,,X,X,,39.8500445,-75.36720539999999,"200 West 9th Street, Chester, PA 19013, USA 200 W 9TH ST CHESTER PA 19013",,
Chestnut Ridge High School,Chestnut Ridge,5,Public,Senior High,10/4/11,382,172,210,2588 QUAKER VALLEY RD,NEW PARIS,15554,Bedford,(814) 839-4195,(814) 839-0018,http://www.lion.crsd.k12.pa.us,Mark J Kudlawiec,mkudlawiec@crsd.k12.pa.us,,Max A Shoemaker,mshoemaker@crsd.k12.pa.us,,Rich J Emerick,remerick@crsd.k12.pa.us,,X,X,,X,X,X,,,X,X,,,X,,,X,X,,X,X,,X,X,,,,X,X,,X,,X,X,,40.1420327,-78.58233969999998,"2588 Quaker Valley Road, New Paris, PA 15554, USA 2588 QUAKER VALLEY RD NEW PARIS PA 15554",,
Chestnut Ridge Middle School,Chestnut Ridge,5,Public,Junior High,10/3/11,409,197,212,3281 VALLEY RD,FISHERTOWN,15539,Bedford,(814) 839-4195,(814) 839-9137,,Mark Kudlawiec,mkudlawiec@crsd.k12.pa.us,,George A Knisely,gknisely@crsd.k12.pa.us,,Rich Emerick,remerick@crsd.k12.pa.us,,X,X,,,X,,,,,,,,,,,X,X,,,,,,,,,,,,,X,,,X,,40.1335157,-78.58457609999999,"3281 Valley Road, Fishertown, PA 15539, USA 3281 VALLEY RD FISHERTOWN PA 15539",,
Chichester High School,Chichester,1,Public,Senior High,10/4/11,851,418,433,3333 Chichester Ave,Boothwyn,19061,Delaware,(610) 485-6881,(610) 485-6510,http://CHICHESTERSD.ORG,Barbara Dimarino,bdimarino@chichestersd.org,,Nancy Alexander,nalexander@chichestersd.org,,Jeanne Strzalkowski,jstrzalkowski@chichestersd.org,,X,X,,X,X,X,X,,,X,X,X,X,,,X,X,,X,X,X,X,X,,X,X,,X,,X,X,X,X,,39.838678,-75.439437,"3333 Chichester Avenue, Boothwyn, PA 19061, USA 3333 Chichester Ave Boothwyn PA 19061",,
Chichester Middle School,Chichester,1,Public,Junior High,10/26/11,748,346,402,925 MEETINGHOUSE RD,BOOTHWYN,19061,Delaware,(610) 485-6881,(610) 494-3064,,Barbara Dimarino,,,Ken Salamone,ksalamone@chichestersd.org,,Jeanne Strzalkowski,jstrzalkowski@chichestersd.org,,X,X,,,X,,,,,X,,,X,,,X,X,,,,X,,,,,X,,X,,X,,X,X,,39.831736,-75.43345499999998,"925 Meetinghouse Road, Boothwyn, PA 19061, USA 925 MEETINGHOUSE RD BOOTHWYN PA 19061",,
