school,district,piaa-district,type,class,last-enrollment-date,total,female,male,address,city,zip,county,phone,fax,website,super-name,super-email,super-phone,principal-name,principal-email,principal-phone,athletic-name,athletic-email,boy-baseball,boy-basketball,boy-bowling,boy-xcountry,boy-fb,boy-golf,boy-outdoortrack,boy-lax,boy-rifle,boy-soccer,boy-swimming,boy-tennis,boy-track,boy-valleyball,boy-waterpolo,boy-wrestling,girl-bball,girl-bowling,girl-cheer,girl-xcountry,girl-hockey,girl-tennis,girl-golf,girl-gym,girl-outdoortrack,girl-lax,girl-rifle,girl-fallsoccer,girl-springsoccer,girl-softball,girl-swimming,girl-track,girl-valleyball,girl-waterpolo,lat,lon
The Neighborhood Academy,Pittsburgh,7,Private,Senior High,10/26/11,50,24,26,709 N AIKEN AVE,PITTSBURGH,15206,Allegheny,(412) 362-2001,(412) 362-2004,,,,,Thomas E Johnson,tom.johnson@theneighborhoodacademy.org,,Darrell Schmitt,darrell.schmitt@theneighborhoodacademy.org,,,,X,,,X,,,,,,X,,,,X,,,X,,,,,,,,,,X,,X,X,,40.4713962,-79.93221729999999
Aquinas Academy of Pittsburgh,Pittsburgh,7,Private,Senior High,10/11/11,60,30,30,2308 WEST HARDIES RD,GIBSONIA,15044,Allegheny,(724) 444-0722,(724) 444-0750,http://www.aquinasacademy-pittsburgh.org,,,,Leslie Mitros,mitros@aquinas.pvt.k12.pa.us,,James Richthammer,richthammer@aquinas.pvt.k12.pa.us,,X,,,,,,X,,X,,,,,,,X,,,,,,,,,,,,,X,,,X,,40.597757,-79.967603
Bishop Canevin High School,Pittsburgh,7,Private,Senior High,10/3/11,284,143,141,2700 MORANGE RD,PITTSBURGH,15205,Allegheny,(412) 922-7400,(412) 922-7403,http://www.canevin.com,Michael Latusek,,,Kenneth Sinagra,sinagrak@bishopcanevin.org,,Daniel F. Bowman,bowmand@bishopcanevin.org,X,X,X,X,X,X,X,,,X,X,X,X,,,,X,X,X,X,X,X,X,,X,,,X,,X,X,X,X,,40.4235701,-80.0702566
CARDINAL WUERL NORTH CATHOLIC,Pittsburgh,7,Private,Senior High,10/14/11,175,77,98,1400 TROY HILL RD,PITTSBURGH,15212,Allegheny,(412) 321-4823,(412) 321-0599,,Robert Paserba,,,Kellie G Abbott,kabbott@cwnchs.org,,Michael C Burrell,mburrell@cwnchs.org,X,X,,,X,,,,,,,,,,,X,X,,,,X,,,,,,,X,,X,,X,,,40.4601089,-79.98535300000003
Central Catholic High School,Pittsburgh,7,Private,Senior High,10/3/11,644,0,644,4720 FIFTH AVE,PITTSBURGH,15213,Allegheny,(412) 208-3421,(412) 208-0555,http://www.pittcentralcatholic.org,Robert L Paserba,bpaserba@diopitt.org,,Robert J. Schaefer,principal@centralcatholichs.com,,Chuck Crummie,ccrummie@centralcatholichs.com,X,X,X,X,X,X,X,X,,X,X,X,X,X,,X,X,,,,X,,,,,,,X,,X,,X,,,40.4468318,-79.9460704
Eden Christian Academy High School,Pittsburgh,7,Private,Senior High,10/3/11,99,50,49,318 Nicholson Road,Sewickley,15143,Allegheny,(412) 741-2825,(412) 324-1101,,,,,Thomas Robert Aiken,taiken@edenca.org,,Steve Good,sgood@edenca.org,X,X,,X,,X,,,,X,,,,,,,X,,,,X,,X,,,,,X,,X,,,,,40.55937000000001,-80.10564399999998
Imani Christian Academy,Pittsburgh,7,Private,Senior High,10/13/11,79,33,46,2150 East Hills Drive,Pittsburgh,15221,Allegheny,(412) 731-7982,(412) 731-7343,http://www.imanichristianacademy.org,,,,Teri Ayers,tayers@imanipgh.org,,Enos Scott,escott@imanipgh.org,,X,,,,,,,,,,,,,,,X,,,,X,,,,,,,,,,,,,,40.453004,-79.87251600000002
Oakland Catholic High School,Pittsburgh,7,Private,Senior High,10/21/11,454,454,0,144 N CRAIG ST,PITTSBURGH,15213,Allegheny,(412) 682-6633,(412) 682-2496,http://www.oaklandcath.org,Robert Paserba,,,Maureen Marsteller,marsteller@oaklandcatholic.org,,George Rudolph,grudolph@oaklandcatholic.org,,,,,,,,,,,,,,,,,X,,,,,,,,,,,X,,X,,X,X,,40.448829,-79.94940299999996
Our Lady of the Sacred Heart High School,Pittsburgh,7,Private,Senior High,10/6/11,275,154,121,1504 WOODCREST AVE,Moon Township,15108,Allegheny,(412) 264-5140,(412) 264-4143,http://www.olsh.org,,,,Timothy J. Plocinik,tplocinik@olsh.org,,Michael Shaughn Mcdonald,mmcdonald@olsh.org,X,X,X,X,X,X,,,,X,,,X,X,,,X,,,,,,,,,,,,,X,,,X,,40.5032558,-80.15748830000001
Saint Joseph High School,Pittsburgh,7,Private,Senior High,10/3/11,149,80,69,800 Montana Avenue,Natrona Heights,15065,Allegheny,(724) 224-5552,(724) 224-3205,http://www.saintjosephs.com,Robert Paserba,,,Beverly Kaniecki,bkaniecki@saintjosephhs.com,,Chris Oshnock,coshnock@saintjosephhs.com,X,X,X,,,X,,,,X,,X,,X,,,X,,,,,,X,,,,X,X,,X,,X,X,,40.6200116,-79.72660029999997
Serra Catholic High School,Pittsburgh,7,Private,Senior High,10/6/11,252,119,133,200 HERSHEY DR,MCKEESPORT,15132,Allegheny,(412) 751-2021,(412) 751-3488,http://www.serrahs.org,Michael Latusek,mlatusek@diopitt.org,,Timothy J Chirdon,chirdont@serrahs.org,,William J Cleary,clearyw@serrahs.org,X,X,X,,X,X,,,,X,X,,X,,,,X,,,,,,,,,,,X,,,,,X,,40.3259923,-79.82428270000003
Seton LaSalle Catholic High School,Pittsburgh,7,Private,Senior High,10/10/11,382,187,195,1000 MCNEILLY RD,PITTSBURGH,15226,Allegheny,(412) 561-3583,(412) 561-9097,,Robert Paserba,,,Lauren Martin,martinl@slshs.org,,John Ashaolu,ashaoluj@slshs.org,X,X,X,X,X,X,X,X,X,X,X,X,X,X,,,X,,X,X,X,X,X,,,,,X,,X,,X,X,,40.3834147,-80.02179960000001
Sewickley Academy,Pittsburgh,7,Private,Senior High,10/3/11,219,99,120,315 ACADEMY AVE,SEWICKLEY,15143,Allegheny,(412) 741-2230,(412) 741-1411,http://www.sewickley.org,,,,Kolia J O'connor,koconnor@sewickley.org,,Winthrop Palmer,wpalmer@sewickley.org,X,X,X,X,,X,,X,,X,,X,X,,,,X,,,,X,,,,,,,,,,,X,X,,40.5437956,-80.18952030000003
Shady Side Academy,Pittsburgh,7,Private,Senior High,10/10/11,359,170,189,423 FOX CHAPEL RD,PITTSBURGH,15238,Allegheny,(412) 968-3000,(412) 968-3003,http://www.shadysideacademy.org,,,,Katherine Vavpetic,kvavpetic@shadysideacademy.org,,Eugene Deal,edeal@shadysideacademy.org,X,X,,X,X,X,,X,,X,X,X,X,,,X,X,X,X,X,X,X,X,,,,X,X,,X,X,X,X,,40.5224699,-79.8826133
The Ellis School,Pittsburgh,7,Private,Senior High,10/6/11,134,134,0,6425 FIFTH AVE,PITTSBURGH,15206,Allegheny,(412) 661-5992,(412) 661-2287,http://WWW.THE ELLISSCHOOL.ORG,,,,Robin Newham,newhamr@theellisschool.org,,Latonya Salley-sharif,salley-sharifl@theellisschool.org,,,,,,,,,,,,,,,,,X,,X,X,X,,,,,,,X,,X,,X,,,40.454254,-79.91797300000002
Trinity Christian School,Pittsburgh,7,Private,Senior High,10/20/11,89,56,33,299 RIDGE AVE,PITTSBURGH,15221,Allegheny,(412) 242-8886,(412) 242-8859,http://www.trinitychristian.net,Dale Mclane,headmaster@trinitychristian.net,,,,,David Jones,dlamontj@aol.com,,X,,,,,,,,X,,,X,,,,X,,X,X,,X,X,,X,X,X,X,,X,X,X,X,,40.42719,-79.85605900000002
Vincentian Academy,Pittsburgh,7,Private,Senior High,10/21/11,191,94,97,8100 McKnight Road,PITTSBURGH,15237,Allegheny,(412) 364-1616,(412) 367-5722,"http://WWW.VADUG,ORG",,,,Kelly M. Lazzara,kelly.lazzara@vincentianacademy.org,,Steve Boyd,steve.boyd@vincentianacademy.org,X,X,,X,X,X,,X,,X,,X,,,,,X,,,X,,X,X,,X,,,,,X,X,X,X,,40.5585537,-80.0235126
Winchester Thurston High School,Pittsburgh,7,Private,Senior High,10/5/11,188,90,98,555 MOREWOOD AVE,PITTSBURGH,15213,Allegheny,(412) 578-7500,(412) 578-7504,http://www.winchesterthurston.org,,,,Gary J Niels,nielsg@winchesterthurston.org,,Kevin Miller,millerk@winchesterthurston.org,,X,,X,,X,,X,,X,,X,X,,,,X,,,X,X,,,,,,,,,X,,,X,,40.4515389,-79.94220200000001
Springdale High School,Allegheny Valley,7,Public,Senior High,10/3/11,261,134,127,501 BUTLER RD,SPRINGDALE,15144,Allegheny,(724) 274-8100,(724) 274-2106,http://www.avsdweb.org,Cheryl A. Griffith,cgriffith@avsd.k12.pa.us,,Andrew Leviski,aleviski@avsd.k12.pa.us,,Raymond James Davis,rdavis@avsd.k12.pa.us,X,X,,,X,,,,,X,X,X,X,,,,X,,,X,X,,,,,,,,,X,,,X,,40.5478,-79.77979399999998
Avonworth High School,Avonworth,7,Public,Senior High,10/3/11,315,151,164,304 JOSEPHS LN,PITTSBURGH,15237,Allegheny,(412) 366-6360,(412) 366-7603,http://www.avonworth.k12.pa.us,Thomas Ralston,tralston@avonworth.k12.pa.us,,Kenneth L Lockette,klockette@avonworth.k12.pa.us,,Tim Giel,tgiel@avonworth.k12.pa.us,X,X,,X,X,,,,,X,,,X,,,X,X,,X,X,X,X,X,,,X,X,X,,X,X,X,X,,40.523808,-80.07199830000002
Baldwin High School,Baldwin Whitehall,7,Public,Senior High,10/10/11,1165,559,606,4653 CLAIRTON BLVD,PITTSBURGH,15236,Allegheny,(412) 885-7515,(412) 885-7831,http://BWSCHOOLS.NET,Randal A. Lutz,rlutz@bwschools.net,,Walter A Graves,wgraves@bwschools.net,,Vincent M Sortino,vsortino@bwschools.net,X,X,X,X,X,X,X,X,,X,X,X,X,X,X,X,X,,,X,X,X,X,,,X,X,X,,X,X,X,X,,40.3557265,-79.97854339999998
Bethel Park High School,Bethel Park,7,Public,Senior High,10/3/11,1344,627,717,309 CHURCH RD,BETHEL PARK,15102,Allegheny,(412) 854-8548,(412) 854-8753,http://www.bpsd.k12.pa.us,Nancy Rose,rose.nancy@bpsd.org,,Zeb Jansante,jansante.zeb@bpsd.org,,Amy Scheuneman,scheuneman.amy@bpsd.org,X,X,,X,X,X,X,X,X,X,X,X,X,X,,X,X,,,X,X,,,,,,,,,X,,,X,,40.3362726,-80.04501800000003
Brentwood High School,Brentwood Borough,7,Public,Senior High,10/12/11,310,160,150,3601 BROWNSVILLE RD,PITTSBURGH,15227,Allegheny,(412) 881-4940,(412) 881-4170,http://www.brentwoodpgh.k12.pa.us,Ronald W. Dufalla,dufallar@brentwoodpgh.k12.pa.us,,Jason T. Olexa,olexaj@brentwoodpgh.k12.pa.us,,Rick Huffman,huffmanr@brentwoodpgh.k12.pa.us,X,X,,X,X,X,,,,X,X,,X,,,,X,,,X,X,,,,,,,,,,,,X,,40.3742115,-79.97549679999997
Carlynton High School,Carlynton,7,Public,Senior High,10/4/11,339,157,182,435 KINGS HWY,CARNEGIE,15106,Allegheny,(412) 429-2500,(412) 429-2508,http://www.carlynton.k12.pa.us,Gary Peiffer,gary.peiffer@carlynton.k12.pa.us,,Mike Loughren,michael.loughren@carlynton.k12.pa.us,,Nate Milsom,nathan.milsom@carlynton.k12.pa.us,X,X,X,,X,X,,,,X,X,X,X,,,X,X,,,,,,,,,,,X,,X,,X,X,,40.4275218,-80.0948712
Chartiers Valley High School,Chartiers Valley,7,Public,Senior High,10/3/11,872,448,424,50 THOMS RUN RD,BRIDGEVILLE,15017,Allegheny,(412) 429-2244,(412) 429-3754,http://www.cvsd.net,Brian White,BWHITE@CVSD.NET,,Thomas Samosky,tsamosky@cvsd.net,,"Frank Vulcano, jr.",fvulcano@cvsd.net,X,X,X,X,X,X,X,X,,X,X,X,X,,,X,X,,,,,,,,,,,,,X,,,,,40.383745,-80.10751100000004
Clairton High School,Clairton,7,Public,Senior High,10/3/11,209,101,108,501 WADDELL AVE,CLAIRTON,15025,Allegheny,(412) 233-9200,(412) 233-3243,,Ginny Hunt,huntg@clairton.k12.pa.us,,Thomas Mccloskey,mccloskeyt@clairton.k12.pa.us,,Mike Linnert,linnertm@clairton.k12.pa.us,X,X,,,X,,,,,,,,X,,,,X,X,,X,,X,,,,,,,,X,X,X,X,,40.293791,-79.88406900000001
Cornell High School,Cornell,7,Public,Senior High,10/4/11,154,78,76,1099 MAPLE ST,CORAOPOLIS,15108,Allegheny,(412) 264-5010,(412) 264-1445,,Aaron Thomas,athomas@cornell.k12.pa.us,,Robert Motte,rmotte@cornell.k12.pa.us,,William Sacco,wsacco@cornell.k12.pa.us,X,X,,,,X,,,,,X,,X,,,,X,,,X,,,,,,,,,,,,X,X,,40.5117896,-80.16133049999996
Deer Lakes High School,Deer Lakes,7,Public,Senior High,10/6/11,464,225,239,163 E UNION RD,CHESWICK,15024,Allegheny,(724) 265-5300,(724) 265-3970,,Janet Ciramella,jciramella@dlsd.k12.pa.us,,Joseph Orr,jorr@dlsd.k12.pa.us,,Charles Bellisario,cbellisario@dlsd.k12.pa.us,X,X,,,X,X,,,,X,X,,X,X,,,X,,X,X,X,,X,,X,,,X,,X,X,X,X,,40.61587859999999,-79.853408
East Allegheny High School,East Allegheny,7,Public,Senior High,10/3/11,492,231,261,1150 JACKS RUN RD,NORTH VERSAILLES,15137,Allegheny,(412) 824-9700,(412) 824-1062,,Roger D'emidio,rdemidio@eawildcats.net,,Don Macfann,dmacfann@eawildcats.net,,Tim Cortazzo,tcortazzo@eawildcats.net,X,X,X,,X,X,,,,X,X,,X,,,,X,,,X,X,,,,,,,X,,,,X,X,,40.3622835,-79.78525279999997
Elizabeth Forward High School,Elizabeth Forward,7,Public,Senior High,10/3/11,664,329,335,1000 WEIGLES HILL RD,ELIZABETH,15037,Allegheny,(412) 896-2349,(412) 384-2030,,Bart Rocco,brocco@efsd.net,,Michael Routh,mrouth@efsd.net,,Dennis J Zieger,dzieger@efsd.net,X,X,X,X,X,X,X,,,X,X,,X,,,X,X,,,X,,X,X,,,X,,X,,X,X,X,X,,40.2562046,-79.85590580000002
Fox Chapel Area High School,Fox Chapel Area,7,Public,Senior High,10/10/11,1100,529,571,611 FIELD CLUB RD,PITTSBURGH,15238,Allegheny,(412) 967-2420,(412) 967-2415,,Anne Stephens,anne_stephens@fcasd.edu,,Michael Hower,michael_hower@fcasd.edu,,Michael O'brien,michael_obrien@fcasd.edu,X,X,,X,X,X,,X,,X,X,X,X,X,,X,X,,,X,,,,,,,,X,,X,X,X,X,,40.5179868,-79.86762870000001
Gateway High School,Gateway,7,Public,Senior High,10/13/11,1024,497,527,3000 GATEWAY CAMPUS BLVD,MONROEVILLE,15146,Allegheny,(412) 373-5744,(412) 373-5872,http://www.ggatewayk12.org,Dr. nina Zetty,,,William Short,wshort@gatewayk12.org,,Randy Rovesti,rrovesti@gatewayk12.org,X,X,X,X,X,X,,X,,X,X,X,X,X,,X,X,,,,,,,,,,,,,X,,X,,,40.4314396,-79.7546322
Hampton High School,Hampton Township,7,Public,Senior High,10/13/11,869,417,452,2929 MCCULLY RD,ALLISON PARK,15101,Allegheny,(412) 486-6000,(412) 487-9448,http://htsd.k12.pa.us,John Hoover,hoover@htsd.k12.pa.us,,Jeffrey A. Finch,finch@htsd.k12.pa.us,,Bill Cardone,cardone@htsd.k12.pa.us,X,X,,X,X,X,X,X,,X,X,X,X,,,X,X,,,,,,,,,,,,,,,,,,40.5831392,-79.9407812
Highlands High School,Highlands,7,Public,Senior High,10/13/11,597,295,302,1500 PACIFIC AVE,NATRONA HEIGHTS,15065,Allegheny,(724) 226-1000,(724) 226-9611,http://www.goldenrams.com,Mike Bjalobok,mbjalobok@goldenrams.com,,Catherine M Russo,crusso@goldenrams.com,,Matthew D Bonislawski,mbonislawski@goldenrams.com,X,X,,X,X,X,,,,X,X,X,X,,,X,X,,X,X,,,,,,,,,,X,,X,X,,40.6181927,-79.72841690000001
Keystone Oaks High School,Keystone Oaks,7,Public,Senior High,10/13/11,545,255,290,1000 KELTON AVE,PITTSBURGH,15216,Allegheny,(412) 571-6040,(412) 571-6043,http://www.kosd.org,William Stropkaj,stropkaj@kosd.org,,Scott Hagy,hagy@kosd.org,,Ken Hustava,hustava@kosd.org,X,X,,X,X,X,,,,X,X,X,X,X,,X,X,,,,,,,,,,,,,,,,X,,40.387434,-80.03175799999997
McKeesport Area High School,Mckeesport Area,7,Public,Senior High,10/4/11,998,483,515,1960 EDEN PARK BLVD,MCKEESPORT,15132,Allegheny,(412) 664-3650,(412) 664-3760,http://www.mckasd.net,Timothy Gabauer,tgabauer@mckasd.net,,Mark Holtzman,mholtzman@mckasd.net,,Charley Kiss,ckiss@mckasd.net,X,X,,X,X,X,,,,X,X,X,X,,,X,X,,X,,,,X,,,,,,,,,X,,,40.343267,-79.8292171
Montour High School,Montour,7,Public,Senior High,10/4/11,808,394,414,223 CLEVER RD,MCKEES ROCKS,15136,Allegheny,(412) 490-6500,(412) 787-3291,,Donald E Boyer,boyerd@montourschools.com,,Todd M Price,pricet@montourschools.com,,Lou Cerro,cerrol@montourschools.com,X,X,X,X,X,X,X,,,X,X,X,X,X,,X,X,,,,,,,,,,,,,,,,X,,40.466168,-80.12099999999998
Moon Area High School,Moon Area,7,Public,Senior High,10/10/11,853,398,455,8353 UNIVERSITY BLVD,CORAOPOLIS,15108,Allegheny,(412) 264-9440,(412) 604-1602,http://masd.k12.pa.us,Donna Milanovich,DMILANOVICH@MASD.K12.PA.US,,Barry Balaski,bbalaski@moonarea.net,,Ricci Rich,rrich@moonarea.net,X,X,,X,X,X,,X,,X,X,X,X,X,,X,X,,X,X,X,X,X,,,,,X,,X,X,X,,,40.510576,-80.22090100000003
Mount Lebanon High School,Mount Lebanon,7,Public,Senior High,10/14/11,1356,690,666,155 COCHRAN RD,PITTSBURGH,15228,Allegheny,(412) 344-2006,(412) 563-7498,http://www.mtlsd.org,Tim Steinhauer,tsteinhauer@MTLSD.NET,,Brian Mcfeeley,mmcfeeley@mtlsd.net,,John Grogan,JGROGAN@MTLSD.NET,X,X,,X,X,X,X,X,X,X,X,X,X,X,,X,X,,,X,X,,,,,,,,,,,,,,40.376205,-80.05082930000003
North Allegheny High School,North Allegheny,7,Public,Senior High,10/17/11,2063,985,1078,10375 PERRY HWY,WEXFORD,15090,Allegheny,(724) 934-7200,(724) 934-7296,http://www.northallegheny.org,Raymond D. Gualtieri,RGualtieri@northallegheny.org,,Walter E. Sieminski,wsieminski@northallegheny.org,,Robert F Bozzuto,bbozzuto@northallegheny.org,X,X,X,X,X,X,X,X,,X,X,X,X,X,X,X,X,,X,X,,X,X,,,,,X,,X,X,X,X,,40.604716,-80.05080699999996
North Hills High School,North Hills,7,Public,Senior High,10/10/11,1076,497,579,53 ROCHESTER RD,PITTSBURGH,15229,Allegheny,(412) 318-1402,(412) 318-1403,http://www.nhsports.org,Patrick Mannarino,Mannarinop@nhsd.net,,John W Kreider,kreiderj@nhsd.net,,Kevin Deitrick,Deitrickk@nhsd.net,X,X,,X,X,X,,X,,X,X,X,X,X,,X,X,,,X,,,,,,,,,,X,,X,,,40.5238691,-80.0291416
Northgate High School,Northgate,7,Public,Senior High,10/5/11,281,139,142,589 UNION AVE,PITTSBURGH,15202,Allegheny,(412) 732-3300,(412) 734-8086,http://www.northgate.k12.pa.us,Joseph J. Pasquerilla,jpasquerilla@northgate.k12.pa.us,,Bryan J. Kyle,bkyle@northgate.k12.pa.us,,Bryan J. Kyle,bkyle@northgate.k112.pa.us,X,X,,X,X,X,,,,,X,,,,,,X,,,X,,,X,,,,,,,X,,X,X,,40.506947,-80.058918
Penn Hills High School,Penn Hills,7,Public,Senior High,10/10/11,1377,697,680,309 COLLINS DR,PITTSBURGH,15235,Allegheny,(412) 793-7000,(412) 793-2518,,Thomas K Washington,TWashi@phsd.k12.pa.us,,Eric Kostic,EKOSTI@phsd.k12.pa.us,,John M Peterman,jpeter@phsd.k12.pa.us,X,X,,X,X,X,,,,X,X,X,X,X,,X,X,,,X,,,X,,,,,,,X,,X,,,40.466344,-79.81199900000001
Pine Richland High School,Pine-Richland,7,Public,Senior High,10/7/11,1190,580,610,700 WARRENDALE RD,GIBSONIA,15044,Allegheny,(724) 625-4444,(724) 625-4640,,Brian R Miller,brmiller@pinerichland.org,,Mike Silbaugh,msilbaugh@pinerichland.org,,Josh Shoop,jshoop@pinerichland.org,X,X,,X,X,X,,X,,X,X,X,X,X,,X,X,,,X,X,X,,,X,X,,X,,X,X,X,,,40.658544,-80.014114
Brashear High School,Pittsburgh,8,Public,Senior High,11/30/11,1587,820,767,590 CRANE AVE,PITTSBURGH,15216,Allegheny,(412) 571-7300,(412) 571-7305,,Linda Lane,,,Angel Washington,awashington1@pghboe.net,,Nikki Lockwich,nlockwich1@pghboe.net,X,X,,X,X,X,,,,X,X,X,X,X,,X,X,,,,X,,,,,X,,X,,X,,X,,,40.4169322,-80.01904230000002
Carrick High School,Pittsburgh,8,Public,Senior High,10/17/11,793,406,387,125 PARKFIELD ST,PITTSBURGH,15210,Allegheny,(412) 885-7700,(412) 885-7708,,Linda Lane,,,Dennis Chakey,,,Pat Schlemmer,pschlemmer1@pghboe.net,X,X,,X,X,X,,,,X,X,X,X,X,,X,X,,,,X,,,,,X,,X,,X,,X,,,40.390761,-79.98933899999997
Obama Academy,Pittsburgh,8,Public,Senior High,10/17/11,261,92,169,515 N Highland Ave,Pittsburgh,15206,Allegheny,(412) 622-5980,(412) 622-5983,,,,,Wayne Walters,wwalters1@pghboe.net,,Liza Simmons,lsimmons2@pghboe.net,X,X,,X,,X,,,,X,X,X,X,X,X,X,X,,X,X,,X,X,,,,,X,,X,X,X,X,,40.46705,-79.92304939999997
Perry Traditional Academy,Pittsburgh,8,Public,Senior High,11/30/11,1110,562,548,3875 PERRYSVILLE AVE,PITTSBURGH,15214,Allegheny,(412) 323-3400,(412) 323-3404,,Linda Lane,llane1@pghboe.net,,Nina Sacco,nsacco1@pghboe.net,,Mark Ward,mward1@pghboe.net,X,X,,X,X,X,,,,X,X,X,X,X,,X,X,,,X,,,,,,,,X,,,,X,,,40.488746,-80.01985100000002
Pittsburgh Science and Technology Academy,Pittsburgh,8,Public,Senior High,10/17/11,368,187,181,107 Thackeray Street,Pittsburgh,15213,Allegheny,(412) 325-7620,(412) 622-5991,,,,,Shawn Mcneil,smcneil1@pghboe.net,,,,,,,,,,,,,,,,,,,,X,,X,,X,X,,,,,,X,,X,,,X,,40.4433879,-79.95657310000001
Taylor Allderdice High School,Pittsburgh,8,Public,Senior High,10/17/11,1200,574,626,2409 SHADY AVE,PITTSBURGH,15217,Allegheny,(412) 422-4800,(412) 422-4803,,Linda Lane,,,Melissa Friez,mfriez1@pghboe.net,,Jerry Haslett,jhaslett1@pghboe.net,X,X,,X,X,X,,X,,X,X,X,X,X,,X,X,,X,,X,,,,,,,X,,X,,,X,,40.4295499,-79.91916420000001
University Prep Margaret Milliones,Pittsburgh,8,Public,Senior High,10/17/11,610,344,266,3117 Centre Avenue,Pittsburgh,15219,Allegheny,(412) 622-5900,(412) 622-5925,,,,,Derrick Hardy,dhardy1@pghboe.net,,,,,X,,,X,,,,,,,,X,,,,X,,,X,,,,,,,,,,X,X,X,X,,40.4487919,-79.9615882
Westinghouse High School,Pittsburgh,8,Public,Senior High,10/17/11,464,279,185,1101 N MURTLAND AVE,PITTSBURGH,15208,Allegheny,(412) 665-3940,(412) 665-4977,,Linda Lane,,,Alexander Herring,aherring1@pghboe.net,,Phyllis Jones,pjones1@pghboe.net,X,X,,X,X,,,,,X,X,X,X,X,,X,X,,,,,,,,,,,,,,X,X,X,,40.46153899999999,-79.90172799999999
Plum High School,Plum Borough,7,Public,Senior High,10/5/11,1065,548,517,900 ELICKER RD,PITTSBURGH,15239,Allegheny,(412) 795-4880,(412) 795-3527,http://www.pbsd.k12.pa.us,Timothy Glasspool,glasspoolt@pbsd.k12.pa.us,,Ryan Kociela,kocielar@pbsd.k12.pa.us,,Bob Alpino,alpinob@pbsd.k12.pa.us,X,X,X,X,X,X,,X,X,X,X,X,X,X,,X,X,X,,X,X,,,,,,,,,X,,X,,,40.5068709,-79.76612599999999
Quaker Valley High School,Quaker Valley,7,Public,Senior High,10/3/11,486,253,233,625 BEAVER RD,LEETSDALE,15056,Allegheny,(412) 749-6000,(412) 749-1226,http://qvsd.org,Joseph Clapper,clapperj@qvsd.org,,Andrew Surloff,surloffa@qvsd.org,,Michael J Mastroianni,mastroiannim@qvsd.org,X,X,,X,X,X,,X,,X,X,X,X,,,,X,,,,X,,,,,,,,,X,,,,,40.561189,-80.202835
Riverview High School,Riverview,7,Public,Senior High,10/14/11,276,136,140,100 HULTON RD,OAKMONT,15139,Allegheny,(412) 828-1800,(412) 828-6296,,Margaret Dininno,Mdininno@rsd.k12.pa.us,,Jay A Moser,jmoser@rsd.k12.pa.us,,Bob Kariotis,bkariotis@rsd.k12.pa.us,X,X,,X,X,X,,,,X,,X,X,,,X,X,,,,X,,,,,,,,,X,,X,X,,40.525756,-79.8442139
Shaler Area High School,Shaler Area,7,Public,Senior High,10/3/11,1223,613,610,381 WIBLE RUN RD,PITTSBURGH,15209,Allegheny,(412) 492-1200,(412) 492-9214,http://www.sasd.k12.pa.us,Wesley Shipley,shipleyw@sasd.k12.pa.us,,Timothy Royall,royallt@sasd.k12.pa.us,,Paul Holzshu,holzshup@sasd.k12.pa.us,X,X,X,X,X,X,X,X,,X,X,X,X,X,,X,X,X,,,X,X,X,,,,,X,,X,,X,X,,40.5152941,-79.97442999999998
South Allegheny High School,South Allegheny,7,Public,Senior High,10/27/11,393,194,199,2743 WASHINGTON BLVD,MCKEESPORT,15133,Allegheny,(412) 675-3070,(412) 673-4903,,Wayne P Gdovic,wgdovic@southallegheny.org,,Jeff Solomon,jsolomon@southallegheny.org,,Eric Roche,eroche@southallegheny.org,X,X,,X,X,,,,,X,X,,X,,,X,X,,,,X,,,,,,,,,X,,X,,,40.323799,-79.868248
South Fayette High School,South Fayette Township,7,Public,Senior High,10/13/11,551,257,294,3640 OLD OAKDALE ROAD,MCDONALD,15057,Allegheny/Washington,(412) 221-4542,(724) 693-8839,http://www.southfayette.org,Bille Rondinelli,BRONDINELLI@SOUTHFAYETTE.ORG,,Scott T. Milburn,SMILBURN@SOUTHFAYETTE.ORG,,Joseph Farkas,FARKAS@SOUTHFAYETTE.ORG,X,X,,X,X,X,X,,,X,X,,X,,,X,X,X,,X,,,,,,,,X,,X,,X,X,,40.377686,-80.16979400000002
South Park High School,South Park,7,Public,Senior High,10/3/11,575,296,279,2005 EAGLE RIDGE RD,SOUTH PARK,15129,Allegheny,(412) 655-4900,(412) 655-1463,http://www.sparksd.org,Jeanine Gregory,,,Patricia Smith,smithp@sparksd.org,,William Dabaldo,dabaldo@sparksd.org,X,X,,X,X,X,,,,X,X,X,X,X,,X,X,,,X,,X,X,,,,,X,,X,,,X,,42.4188694,-87.858273
Steel Valley High School,Steel Valley,7,Public,Senior High,10/26/11,458,212,246,3113 Main Street,MUNHALL,15120,Allegheny,(412) 464-3600,(412) 464-3655,,Edward Wehrer,ewehrer@steelvalleysd.org,,Bryan Macuga,bmacuga@steelvalleysd.org,,Shawn Mccallister,smccallister@steelvalleysd.org,X,X,,X,X,X,,,,X,X,,,X,,,X,,,,,,,,,,,,,,,,X,,40.3886401,-79.9012262
Sto-Rox High School,Sto Rox,7,Public,Senior High,10/3/11,291,142,149,1105 VALLEY STREET,McKEES ROCKS,15136,Allegheny,(412) 771-3213,(412) 771-8395,,Frank Dalmas,fdalmas@srsd.k12.pa.us,,Tim Beck,tbeck@srsd.k12.pa.us,,Howard Bullard,hbullard@srsd.k12.pa.us,X,X,,,X,,,,,,,,,,,,X,,,X,,,X,,,,,X,,X,X,X,X,,40.4721899,-80.07375580000001
Upper Saint Clair High School,Upper Saint Clair Township,7,Public,Senior High,10/11/11,1053,512,541,1825 MCLAUGHLIN RUN RD,UPPER SAINT CLAIR,15241,Allegheny,(412) 833-1600,(412) 851-2068,http://www.uscsd.k12.pa.us,Patrick T O'toole,,,Michael Ghilani,,,Matt Mellinger,mmellinger@uscsd.k12.pa.us,X,X,,X,X,X,X,X,X,X,X,X,X,X,,X,X,,,X,,,,,,,,,,,X,,,,40.3329114,-80.07073079999998
West Allegheny High School,West Allegheny,7,Public,Senior High,10/3/11,816,404,412,205 W ALLEGHENY RD,IMPERIAL,15126,Allegheny,(724) 695-5246,(724) 695-1546,http://www.westallegheny.k12.pa.us,"John Disanti, phd.",jdisanti@westasd.org,,Daniel P Smith,dsmith@westasd.org,,"David G Mcbain, caa, atc",dmcbain@westasd.org,X,X,X,X,X,X,X,,,X,X,X,X,,,X,X,,,X,,X,,,,,,,,X,,X,X,,40.4453536,-80.23512260000001
Thomas Jefferson High School,West Jefferson Hills,7,Public,Senior High,10/12/11,667,334,333,310 OLD CLAIRTON ROAD,JEFFERSON HILLS,15025,Allegheny,(412) 655-8610,(412) 943-1170,http://www.wjhsd.net,,,,Tim Haselfhoff,thaselhoff@wjhsd.net,,Bill Cherpak,wcherpak@wjhsd.net,X,X,X,X,X,X,X,,,X,X,X,X,X,,X,X,,,,,,,,,,,,,X,,X,X,,40.296334,-79.9310279
West Mifflin Area High School,West Mifflin Area,7,Public,Senior High,10/4/11,775,371,404,91 COMMONWEALTH AVE,WEST MIFFLIN,15122,Allegheny,(412) 466-9131,(412) 466-4595,http://www.15122.com,Dan Castagna,Castagnad@wmasd.org,,Phillip Woods,woodsp@wmasd.org,,Scott Stephenson,stephensons@wmasd.org,X,X,X,X,X,X,X,,,X,X,X,X,,,X,X,,,X,,,,,,,,,,X,,X,X,,40.382872,-79.87520799999999
Wilkinsburg High School,Wilkinsburg Borough,7,Public,Senior High,10/3/11,269,139,130,747 WALLACE AVE,WILKINSBURG,15221,Allegheny,(412) 871-2256,(412) 871-2257,,Lee Mcferren,mcferrenl@wilkinsburgschools.org,,Stephen Puskar,puskars@wilkinsburgschools.org,,Michael Fulmore,fulmorem@wilkinsburgschools.org,X,X,,,X,,,,,,,,X,,,,X,,,X,,,,,,,,,,X,,X,X,,40.4438982,-79.88247209999997
Woodland Hills High School,Woodland Hills,7,Public,Senior High,10/17/11,1069,539,530,2550 GREENSBURG PIKE,PITTSBURGH,15221,Allegheny,(412) 244-1100,(412) 242-1141,http://WHSD.K12.PA.US,Mr.alan Johnson,johnal@whsd.net,,Daniel L Stephens,stepda@whsd.net,,George A Novak,novage@whsd.net,X,X,X,X,X,X,,,X,X,X,X,X,X,,X,X,,,,,X,,,,,,X,,X,X,X,X,,40.438194,-79.853632
Apollo Ridge High School,Apollo-Ridge,7,Public,Senior High,10/14/11,376,194,182,1825 STATE ROUTE 56,SPRING CHURCH,15686,Armstrong/Indiana,(724) 478-6000,(724) 478-9775,,Matthew Curci,,,Clint Weimer,weimerc@apolloridge.com,,Raymond Bartha,raybartha@apolloridge.com,X,X,,,X,,,,,,,,X,,,,X,,,X,,,,,,,,X,,,X,X,X,,40.604542,-79.47542499999997
Ford City Sr High School,Armstrong,7,Public,Senior High,10/4/11,394,198,196,1100 4TH AVE,FORD CITY,16226,Armstrong/Indiana,(724) 763-5288,(724) 763-7813,,Stan Chapp,,,Michael Cominos,mcominos@asd.k12.pa.us,,Dennis Stewart,sted@asd.k12.pa.us,X,X,,X,X,X,,,,,,,X,X,,,X,,,X,,,,,,,,X,,,,X,X,,40.7726309,-79.528863
Kittanning High School,Armstrong,7,Public,Senior High,10/6/11,567,280,287,1200 ORR AVE,KITTANNING,16201,Armstrong/Indiana,(724) 543-1591,(724) 543-1712,,Stan J. Chapp,schapp@asd.k12.pa.us,,James Rummel,jrummel@asd.k12.pa.us,,Todd Harvey,hartad@asd.k12.pa.us,X,X,,X,X,X,,,,X,X,X,X,,,X,X,,,,,,X,,,,,,,X,,X,X,,40.8315057,-79.526791
West Shamokin High School,Armstrong,7,Public,Senior High,10/13/11,338,169,169,178 WOLF DRIVE,RURAL VALLEY,16249,Armstrong/Indiana,(724) 783-7040,(724) 783-6747,http://www.asd.k12.pa.us,Stan Chapp,schapp@asd.k12.pa.us,,Steve Shutters,sshutters@asd.k12.pa.us,,Tom Mcclaine,tmcclaine@asd.k12.pa.us,X,X,,X,X,X,,,,X,,,,X,,X,X,,,,,,,,,,,,,,,,X,,40.791686,-79.271547
Lincoln Park Performing Arts Charter School,Midland Borough,7,Charter,Senior High,10/5/11,352,255,97,ONE LINCOLN PARK,MIDLAND,15059,Beaver,(724) 643-9004,(724) 643-4809,,,,,Patrick K. Poling,patrick.poling@lppacs.org,,Michael Bariski,mike.bariski@lppacs.org,,X,,,,X,,,,,,,,,,,X,,,,,,,,,,,,,X,,,X,,40.6354795,-80.45029339999996
Quigley Catholic High School,,7,Private,Senior High,10/3/11,112,67,45,200 QUIGLEY DR,BADEN,15005,Beaver,(724) 869-2189,(724) 869-3091,,Robert Paserba,,,Mrs. rita Mccormick,mccormick@qchs.org,,Mitchell J Yanyanin,ad@qchs.org,X,X,,,,X,,,,X,,,,,,,X,,,,,,,,,,,,,X,,,X,,40.6534541,-80.22601529999997
Beaver County Christian High School,,7,Private,Senior High,10/21/11,59,31,28,510 37th Street,Beaver Falls,15010,Beaver,(724) 843-3002,(724) 843-5224,,Mary Lou Capan,,,Rob Rostoni,bccs.mc@comcast.net,,Alan Sumner,bccs.mc@comcast.net,,X,,,,,,,,X,,,,X,,,X,,X,X,X,,,,,,,X,,,,X,X,,40.77847999999999,-80.326458
Ambridge Area High School,Ambridge Area,7,Public,Senior High,10/17/11,747,320,427,909 DUSS AVE,AMBRIDGE,15003,Beaver,(724) 266-2833,(724) 266-5056,,Cynthia Zurchin,czurchin@ambridge.k12.pa.us,,Alan R Fritz,afritz@ambridge.k12.pa.us,,Shawn Besong,sbesong@ambridge.k12.pa.us,X,X,X,X,X,X,,,,X,,X,X,X,,X,X,,,,X,,,,,,,X,,,,,,,40.5913672,-80.22582840000001
Beaver Area High School,Beaver Area,7,Public,Senior High,10/13/11,484,227,257,1 GYPSY GLEN RD,BEAVER,15009,Beaver,(724) 774-0250,(724) 774-3926,http://www.basd.k12.pa.us,John Hansen,hansen@basd.k12.pa.us,,David Zupsic,zupsicd@basd.k12.pa.us,,Pat Mcdanel,mcdanelp@basd.k12.pa.us,X,X,,X,X,X,,,,X,X,X,X,,,X,X,,,,X,,,,,,,,,X,,X,X,,40.7078049,-80.33727820000001
Beaver Falls Area High School,Big Beaver Falls Area,7,Public,Senior High,10/14/11,394,200,194,1701 8TH AVE,BEAVER FALLS,15010,Beaver,(724) 843-7470,(724) 843-0892,http://tigerweb.k12.pa.us,Dr Donna Nugent,nugentd@tigerweb.k12.pa.us,,Mary beth Leeman,leemanm@tigerweb.k12.pa.us,,James A Carbone,carbonej@tigerweb.k12.pa.us,X,X,X,X,X,X,,,,,X,X,X,,,,X,,,,X,,,,,,,,,X,,X,X,,40.758148,-80.321324
Blackhawk High School,Blackhawk,7,Public,Senior High,10/11/11,638,315,323,500 BLACKHAWK RD,BEAVER FALLS,15010,Beaver/Lawrence,(724) 846-9600,(724) 891-3901,http://WWW.BSD.K12.PA.US,Michelle Miller,millerm@bsd.k12.pa.us,,Scott R. Nelson,nelsons@bsd.k12.pa.us,,Jack Fullen,fullenj@bsd.k12.pa.us,X,X,,X,X,X,,,,X,X,X,X,,,X,X,X,X,X,X,X,X,,X,,,X,,X,X,X,X,,40.7641605,-80.39837920000002
Central Valley High School,Center Area,7,Public,Senior High,10/3/11,650,309,341,160 Baker Road Ext.,Monaca,15061,Beaver,(724) 775-4300,(724) 775-6560,,Nicholas D Perry,nperry@centralvalleysd.org,,Shawn Mccreary,smccreary@centralvalleysd.org,,Sam Cercone,scercone@centralvalleysd.org,X,X,X,X,X,X,,,,X,,X,X,,,X,X,X,,X,,X,X,X,,,,X,,X,,X,X,,40.6612981,-80.3042519
Aliquippa Senior High School,City Of Aliquippa,7,Public,Senior High,10/4/11,245,115,130,100 HARDING AVE,ALIQUIPPA,15001,Beaver,(724) 857-7515,(724) 857-7560,http://WWW.ALIQUIPPA.K12.PA.US,David A Wytiaz,dwytiaz@quips.org,,Alvin B Gipson,agipson@quipsd.org,,Michael Zmijanac,mzmijanac@quipsd.org,X,X,,,X,,,,,,,,X,,,,X,,,,,,,,,,,X,,X,,X,X,,40.5814128,-80.25793469999996
Freedom Area High School,Freedom Area,7,Public,Senior High,10/13/11,406,191,215,1190 BULLDOG DR,FREEDOM,15042,Beaver,(724) 775-7400,(724) 775-7753,,Jeffrey Fuller,jfuller@freedom.k12.pa.us,,Timothy Dadich,tdadich@freedom.k12.pa.us,,John Rosa,freedomathletics@yahoo.com,X,X,,X,X,X,,,,X,X,,X,,,X,X,,,X,X,X,X,,X,X,,X,,X,X,X,X,,40.677539,-80.24021200000004
Hopewell High School,Hopewell Area,7,Public,Senior High,10/6/11,667,319,348,1215 LONGVUE AVE,ALIQUIPPA,15001,Beaver,(724) 375-6691,(724) 378-1705,http://www.hopewell.k12.pa.us,Charles M. Reina,reinac@hopewellarea.org,,Michael E Allison,allisonm@hopewellarea.org,,Donald Short,adoffice@hopewellarea.org,X,X,X,X,X,X,,,,X,X,X,X,X,,X,X,,,X,X,X,X,,X,X,,X,,X,X,X,X,,40.5894363,-80.25286679999999
New Brighton Area High School,New Brighton Area,7,Public,Senior High,10/3/11,424,182,242,3202 43RD ST,NEW BRIGHTON,15066,Beaver,(724) 846-1050,(724) 846-2204,,Joseph A Guarino,jguarino@nbsd.k12.pa.us,,Edward J Kasparek,ekasparek@nbsd.k12.pa.us,,Joseph Ursida,jursida@nbsd.k12.pa.us,X,X,,X,X,X,,,,X,,,X,,,,X,,X,X,X,X,X,,X,X,,X,,,X,X,X,,40.733152,-80.29988449999996
Riverside High School,Riverside Beaver County,7,Public,Senior High,10/6/11,421,215,206,300 COUNTRY CLUB DR,ELLWOOD CITY,16117,Beaver,(724) 758-7512,(724) 758-0919,,David Anney,danney@riverside.k12.pa.us,,Mike Brooks,mbrooks@riverside.k12.pa.us,,John Wolf,jwolf@riverside.k12.pa.us,X,X,,X,X,X,,,,X,X,X,X,,,,,,,X,,,,,,,,,,,,,,,40.831917,-80.26047299999999
Rochester Area High School,Rochester Area,7,Public,Senior High,10/14/11,249,130,119,540 RENO ST,ROCHESTER,15074,Beaver,(724) 775-7500,(724) 775-9268,,,,,Michael Damon,damonm@rasd.org,,Ryan Bauer,bauerr@rasd.org,X,X,X,,X,X,,,,,,,X,,,,X,,,,X,X,,,,X,,X,,X,,X,,,40.709478,-80.277782
South Side High School,Southside Area,7,Public,Senior High,10/3/11,296,146,150,4949 SR 151,HOOKSTOWN,15050,Beaver,(724) 573-9581,(724) 573-0449,http://sssd.k12.pa.us,Tammy Adams,tha@sssd.k12.pa.us,,Anthony Paull,acp@sssd.k12.pa.us,,Ronald Ledbetter,rel@sssd.k12.pa.us,X,X,,X,X,X,,,,X,,,X,,,X,X,,,,X,X,,,,,,,,X,,X,,,40.569184,-80.43689999999998
Western Beaver High School,Western Beaver County,7,Public,Senior High,10/3/11,197,93,104,216 ENGLE RD,INDUSTRY,15052,Beaver,(724) 643-8500,(724) 643-8504,http://WWW.WESTERNBEAVER.ORG,Robert Postupac,rpostupac@westernbeaver.org,,Steve Wellendorf,swellendorf@westernbeaver.org,,Ron Busby,rbusby@westernbeaver.org,X,X,,,X,X,,,,,,,X,,,,X,,,,X,X,,,,,,,,X,,X,,,40.66846200000001,-80.42191009999999
HOPE for Hyndman Charter School,,5,Charter,Senior High,10/14/11,84,31,53,130 SCHOOL DRIVE,HYNDMAN,15545,Bedford,(814) 842-3918,,,,,,Erich May,emay@hyndmancharterschool.org,,Richard Bistline,rbistline@hyndmancharterschool.org,X,X,,X,,,,,,X,,X,,,,X,X,,,X,X,,,,,,,,,,,,,,39.824812,-78.72832799999998
Bedford High School,Bedford Area,5,Public,Senior High,10/4/11,480,225,255,330 E JOHN ST,BEDFORD,15522,Bedford,(814) 623-4250,(814) 623-4265,,Allen Sell,sella@bedford.k12.pa.us,,Kyle Kane,kanek@bedford.k12.pa.us,,Dan Baker,bakerd@bedford.k12.pa.us,X,X,,X,X,X,,,,X,,X,X,,,X,X,,X,X,X,X,X,,X,X,,X,,X,X,X,X,,40.0160627,-78.49904240000001
Chestnut Ridge High School,Chestnut Ridge,5,Public,Senior High,10/4/11,382,172,210,2588 QUAKER VALLEY RD,NEW PARIS,15554,Bedford,(814) 839-4195,(814) 839-0018,http://www.lion.crsd.k12.pa.us,Mark J Kudlawiec,mkudlawiec@crsd.k12.pa.us,,Max A Shoemaker,mshoemaker@crsd.k12.pa.us,,Rich J Emerick,remerick@crsd.k12.pa.us,X,X,,X,X,X,,,X,X,,,X,,,X,X,,,X,X,,,,,,,,,,,X,,,40.1420327,-78.58233969999998
Everett Area High School,Everett Area,5,Public,Senior High,10/5/11,365,161,204,1 RENAISSANCE CIRCLE,EVERETT,15537,Bedford,(814) 652-9114,(814) 652-0107,http://www.everett.k12.pa.us,Dan Webb,dwebb@everett.k12.pa.us,,Christina Ramsey,cramsey@everett.k12.pa.us,,Brian Koontz,bkoontz@everett.k12.pa.us,X,X,,,X,X,,,X,X,,,X,,,X,X,,X,X,X,X,X,,X,X,,X,,X,X,X,X,,40.0141703,-78.3645785
Northern Bedford County High School,Northern Bedford County,5,Public,Senior High,10/3/11,281,130,151,152 NBC DR,LOYSBURG,16659,Bedford,(814) 766-2221,(814) 766-3772,http://www.nbcsd.k12.pa.us,Scott King,sking@nbcsd.org,,David Burkett,dburkett@nbcsd.org,,Jeff Batzel,jbatzel@nbcsd.org,X,X,,,X,X,,,,X,,,X,,,X,X,,,X,X,,,,,,,X,,,,X,,,40.1611907,-78.37652880000002
Tussey Mountain High School,Tussey Mountain,5,Public,Senior High,10/4/11,287,138,149,199 FRONT ST,SAXTON,16678,Bedford/Huntingdon,(814) 635-2975,(814) 635-3713,http://tmsd.net,,,,Jerry Shoemake,jshoemake@tmsd.net,,Rodney E. Brumbaugh,rbrumbaugh@tmsd.net,X,X,,,X,,,,,,,X,X,,,X,X,,,X,X,,,,,,,,,,,X,,,40.2201575,-78.23678210000003
Bishop Guilfoyle Catholic High School,,6,Private,Senior High,10/5/11,254,125,129,2400 PLEASANT VALLEY BLVD,ALTOONA,16602,Blair,(814) 944-4014,(814) 944-8695,http://www.bishopguilfoyle.org,Sister donna marie Leiden,leiden.donna@daj.k12.pa.us,,Joan M Donnelly,jdonnelly@bguilfoyle.org,,Michael J Cacciotti,bghsathletics@bguilfoyle.org,X,X,,X,X,X,,,,X,,X,X,X,,,X,,,X,X,,,,,,,X,,,,X,,,40.494586,-78.39541229999998
Living Water Christian Sr Academy,,6,Private,Senior High,10/3/11,3,1,2,1960 William Penn Hwy,WILLIAMSBURG,16693,Blair,(814) 832-2870,,,,,,Betty J Kagarise,lwca@atlanticbbn.net,,,,,,,,,,,,,,,,,,,,X,,X,X,X,X,X,,X,X,,X,,X,X,X,X,,40.5151572,-78.21000320000002
Altoona Area High School,Altoona Area,6,Public,Senior High,1/19/12,1719,827,892,1415 6TH AVENUE,ALTOONA,16602,Blair,(814) 946-8289,(814) 946-8272,,Thomas B Otto,totto@aasdcat.com,,Patricia L Burlingame,pburlingame@aasdcat.com,,Phil Riccio,priccio@aasdcat.com,X,X,,X,X,X,X,,,X,X,X,X,X,,X,X,,X,X,X,,,,,,,X,,,,X,X,,40.5101921,-78.39811450000002
Bellwood Antis High School,Bellwood Antis,6,Public,Senior High,10/3/11,342,163,179,400 MARTIN ST,BELLWOOD,16617,Blair,(814) 742-2274,(814) 742-9817,http://www.tuckahoe.blwd.k12.pa.us,G. Brian Toth,gbt@blwd.k12.pa.us,,Lisa A Hartsock,lah@blwd.k12.pa.us,,John Hayes,jrh@blwd.k12.pa.us,X,X,,X,X,X,,,,,,,X,,,X,X,,X,X,,,X,,,,,X,,X,,,X,,40.59559040000001,-78.33121089999997
Claysburg Kimmel High School,Claysburg-Kimmel,6,Public,Senior High,10/3/11,201,103,98,531 Bedford St.,CLAYSBURG,16625,Blair/Bedford,(814) 239-5141,(814) 239-8949,http://www.cksd.k12.pa.us,Royce A Boyd,rboyd@cksd.k12.pa.us,,Michael O'dellick,modellick@cksd.k12.pa.us,,Michael C O'dellick,modellick@cksd.k12.pa.us,X,X,,,X,,,,,,,,,,,X,X,,,X,,,,,,,,,,,,,X,,40.3037341,-78.44802429999999
Hollidaysburg Area High School,Hollidaysburg Area,6,Public,Senior High,10/13/11,867,436,431,1510 N MONTGOMERY ST,HOLLIDAYSBURG,16648,Blair,(814) 695-4416,(814) 696-0167,http://tigerwires.com,Robert Gildea,robert_gildea@tigerwires.com,,Maureen Letcher,maureen_letcher@tigerwires.com,,Homer Delattre,homer_delattre@tigerwires.com,X,X,,X,X,X,X,,,X,X,X,X,,,X,X,,,,,,,,,,,,,,,,X,,40.4414179,-78.40053610000001
Central High School,Spring Cove,6,Public,Senior High,10/13/11,438,227,211,718 Central High Road,Martinsburg,16662,Blair,(814) 793-2111,(814) 793-4942,http://scsd.k12.pa.us,Robert Vadella,rvadella@scsd.k12.pa.us,,Dave Crumrine,dcrumrine@scsd.k12.pa.us,,Chuck Gojmerac,cgojmerac@scsd.k12.pa.us,X,X,,X,X,X,,,,X,,,X,X,,X,X,,,,,,,,,,,,,X,,,X,,40.3111875,-78.32417950000001
Tyrone Area High School,Tyrone Area,6,Public,Senior High,10/21/11,439,215,224,1001 CLAY AVE,TYRONE,16686,Blair/Centre,(814) 684-4240,(814) 684-4245,http://www.tyrone.k12.pa.us,Cathy Harlow,,,Thomas A Yoder,tayoder@tyrone.k12.pa.us,,Lucas D. Rhoades,ldrhoades@tyrone.k12.pa.us,X,X,,X,X,X,,,,X,X,X,X,,,X,X,,,X,,X,,,,,,X,,X,X,X,X,,40.674534,-78.24787300000003
Williamsburg High School,Williamsburg Community,6,Public,Senior High,10/3/11,136,69,67,515 W 3RD ST,WILLIAMSBURG,16693,Blair,(814) 832-2125,(814) 832-0115,http://www.williamsburg.k12.pa.us,,,,Travis Lee,tlee@williamsburg.k12.pa.us,,Deborah Appleman,daadwhs@yahoo.com,X,X,,,X,,,,,,,,,,,,X,,,X,,X,,,,,,X,,X,,X,X,,40.4610086,-78.20454619999998
Summit Academy,,7,Private,Senior High,10/16/11,213,0,213,PO BOX 13,HERMAN,16039,Butler,(724) 282-1995,(724) 282-2135,http://www.theacademysystem.com,Samuel A Costanzo,,,Stephen J Scherer,sherers@theacademysystem.com,,John D Mccloud,mccloudj@theacademysystem.com,X,X,,,X,X,,,,,,,X,X,,X,X,X,,X,X,X,X,,X,,,X,,X,,X,X,,40.8305259,-79.8113358
Butler Area High School,Butler Area,7,Public,Senior High,10/6/11,1968,941,1027,120 CAMPUS LN,BUTLER,16001,Butler,(724) 287-8721,(724) 287-1596,,Michael Strutt,michael_strutt@butler.k12.pa.us,,Jeffery J Schnur,jeff_schnur@butler.k12.pa.us,,Bill Mylan,william_mylan@butler.k12.pa.us,X,X,X,X,X,X,X,X,X,X,X,X,X,X,,X,X,,,X,X,,,,,,,,,,,X,,,40.8658869,-79.91916859999998
Freeport Area Senior High School,Freeport Area,7,Public,Senior High,10/12/11,493,248,245,625 South Pike Road,Sarver,16055,Butler/Armstrong,(724) 295-5143,(724) 295-2390,http://www.freeport.k12.pa.us,Chris Devivo,devivo@freeport.k12.pa.us,,Jeffrey Lesko,lesko@freeport.k12.pa.us,,Todd O'shell,toshell@freeport.k12.pa.us,X,X,,X,X,X,,,,X,X,,X,,,,X,,X,X,X,,X,,,X,,X,,X,,X,X,,40.7016115,-79.7198391
Karns City High School,Karns City Area,9,Public,Senior High,10/6/11,413,200,213,1446 KITTANNING PIKE,KARNS CITY,16041,Butler/Clarion/Armstrong/,(724) 756-2030,(724) 756-1060,,Eric Ritzert,eritzert@karnscity.k12.pa.us,,David Beck,dbeck@karnscity.k12.pa.us,,Tom Wagner,twagner@karnscity.k12.pa.us,X,X,X,X,X,X,,,,X,,,X,,,,X,,,X,X,,,,,,,,,,,X,X,,40.9876708,-79.7257467
Mars Area High School,Mars Area,7,Public,Senior High,10/4/11,763,374,389,520 ROUTE 228,MARS,16046,Butler,(724) 625-9380,(724) 625-3960,http://www.marsk12.org,William Pettigrew,dpettigrew@marsk12.org,,Todd Kolson,tkolson@marsk12.org,,Scott D Heinauer,heinauer@hotmail.com,X,X,X,X,X,X,,X,,X,X,X,X,,,X,X,,X,X,X,X,X,,X,X,,X,,X,X,X,X,,40.6938115,-79.98452320000001
Moniteau High School,Moniteau,9,Public,Senior High,10/17/11,409,192,217,1810 W SUNBURY RD,WEST SUNBURY,16061,Butler,(724) 637-2091,(724) 637-3878,,George Svolos,gsvolos@moniteau.k12.pa.us,,Maynard Harvey,mharvey@moniteau.k12.pa.us,,James Metz,jmetz@moniteau.k12.pa.us,X,X,,X,X,X,,,,,,,X,,,,X,,,X,X,,,,,X,,,,X,,X,X,,41.058881,-79.89819
Seneca Valley High School,Seneca Valley,7,Public,Senior High,10/3/11,1891,896,995,128 SENECA SCHOOL RD,HARMONY,16037,Butler,(724) 452-6040,(724) 452-8357,http://www.svsd.net,Tracy Vitale,vitaletl@svsd.net,,Mark Korcinsky,korcinskyma@svsd.net,,Heather Lewis,lewish@svsd.net,X,X,,X,X,X,,X,,X,X,X,X,X,,X,X,X,X,X,,,X,,X,,,X,,X,X,X,X,,40.80937,-80.10653159999998
Slippery Rock Area High School,Slippery Rock Area,10,Public,Senior High,10/13/11,566,262,304,201 KIESTER RD,SLIPPERY ROCK,16057,Butler,(724) 794-2960,(724) 794-3559,,Kathleen Nogay,,,Kristie Shulsky,kristie_shulsky@slipperyrock.k12.pa.us,,John Osborne,john_Osborne@slipperyrock.k12.pa.us,X,X,,X,X,X,X,,,X,X,,X,,,X,X,,X,,,,,,,,,X,,X,X,X,X,,41.0587512,-80.045256
Knoch High School,South Butler County,7,Public,Senior High,10/10/11,754,371,383,345 KNOCH RD,SAXONBURG,16056,Butler,(724) 352-1700,(724) 352-3820,http://southbutler.k12.pa.us,Dale Lumley,lumleyd@southbutler.net,,Todd Trofimuk,trofimukt@southbutler.net,,Mike King,kingm@southbutler.net,X,X,X,X,X,X,,,,X,X,X,X,,,X,X,X,X,X,X,X,X,,,X,X,X,,X,X,X,X,,40.74764649999999,-79.82745990000001
Bishop Carroll Catholic High School,,6,Private,Senior High,10/5/11,170,75,95,728 BEN FRANKLIN HIGHWAY,EBENSBURG,15931,Cambria,(814) 472-7500,(814) 472-8020,,Sr. donna Marie Leiden,dleiden@dioceseaj.org,,Lorie M. Ratchford,lratchford@bishopcarroll.org,,Joe Skura,jskura@bishopcarroll.org,X,X,,X,X,X,,,,X,,,X,,,,X,,X,,,,X,,,,,X,,X,,X,X,,40.4855642,-78.73623040000001
Bishop McCort Catholic High School,,6,Private,Senior High,10/6/11,306,162,144,25 OSBORNE ST,JOHNSTOWN,15905,Cambria,(814) 536-8991,(814) 535-4118,http://www.mccort.org,Sister donna marie Leiden,dleiden@dioceseaj.org,,D.a. Gardill,dagardill@mccort.org,,Fran Zima,fzima@mccort.org,X,X,,X,X,X,,,,X,X,X,X,,,,X,,X,,,,,,,,,,,X,,,X,,40.3049911,-78.9169824
Blacklick Valley High School,Blacklick Valley,6,Public,Senior High,10/4/11,161,68,93,555 BIRCH ST,NANTY GLO,15943,Cambria,(814) 749-9211,(814) 749-8627,http://www.bvsd.k12.pa.us,John Mastillo,jmastillo@bvsd.k12.pa.us,,Laura Fisanick,lfisanic@bvsd.k12.pa.us,,Christopher Zamboni,czamboni@bvsd.k12.pa.us,X,X,,,X,,,,,,,,X,,,,X,X,X,X,X,X,X,,X,X,,X,,X,X,X,X,,40.47765769999999,-78.83638459999997
Cambria Heights High School,Cambria Heights,6,Public,Senior High,10/12/11,382,181,201,426 GLENDALE LAKE ROAD,PATTON,16668,Cambria,(814) 674-3601,(814) 674-5605,,Michael Strasser,,,Timothy F Laurito,,,Thomas A Boyle,tboyle@chsd1.org,X,X,,X,X,,,,,X,X,,X,,,X,X,,,X,X,,,,X,X,,X,,X,X,X,X,,40.6327618,-78.6276732
Central Cambria High School,Central Cambria,6,Public,Senior High,10/3/11,409,203,206,204 SCHOOLHOUSE RD,EBENSBURG,15931,Cambria,(814) 472-8860,(814) 472-8886,,Vincent Dileo,vdileo@cencam.org,,Kimberly Mcdermott,kmcdermott@cencam.org,,Ron Stempka,rstempka@cencam.org,X,X,,X,X,X,,,,X,X,X,X,,,X,X,,,X,X,,X,,,,,X,,X,,X,X,,40.489877,-78.73814540000001
Conemaugh Valley High School,Conemaugh Valley,6,Public,Senior High,10/20/11,229,122,107,1342 WILLIAM PENN AVE,JOHNSTOWN,15906,Cambria,(814) 535-5523,(814) 536-4025,http://www.cv.k12.pa.us,Dave Lehman,dlehman@cvk12.org,,Shane Hazenstab,shazenstab@cvk12.org,,Paula Mccleester,PMcCleester@cvk12.org,X,X,,,X,X,,,,,,,,,,,X,,,,X,,,,,,,X,,,,X,X,,40.3614599,-78.88831800000003
Ferndale Area High School,Ferndale Area,6,Public,Senior High,10/4/11,187,92,95,600 HARLAN AVE,JOHNSTOWN,15905,Cambria,(814) 288-5757,(814) 288-5224,,Carole Kakabar,ckakabar@fasdk12.org,,Brian Mcdermott,bmcdermott@fasdk12.org,,Steve Clawson,sclawson@fasdk12.org,X,X,,,X,X,,,,,,,,,,,X,,X,X,,X,,,,X,,X,,X,X,X,X,X,40.2876316,-78.91664980000002
Forest Hills High School,Forest Hills,6,Public,Senior High,10/13/11,507,256,251,489 LOCUST ST,SIDMAN,15955,Cambria,(814) 487-7613,(814) 487-2371,HTTP:/FHSD.K12.PA.US,Edwin Bowser,ebowser@fhrangers.org,,Curt Vasas,cvasas@fhrangers.org,,Joseph M. Gironda,JGironda@FHRangers.org,X,X,,X,X,X,,,X,X,,X,X,X,,X,X,,,,,,,,,X,,X,,,,,X,,40.3320211,-78.75213719999999
Glendale High School,Glendale,6,Public,Senior High,10/3/11,205,89,116,1466 BEAVER VALLEY RD,FLINTON,16640,Cambria/Clearfield,(814) 687-4261,(814) 687-4718,http://www.gsd1.org,Arnold Nadonley,anadonley@gsd1.org,,Gary Walstrom,gwalstrom@gsd1.org,,John Matchock,jmatchock@gsd1.org,X,X,,,X,,,,,,,,,,,X,X,,X,,,,,,,,,,,X,,X,X,,40.7031333,-78.53827969999998
Greater Johnstown High School,Greater Johnstown,6,Public,Senior High,10/24/11,674,326,348,222 CENTRAL AVE,JOHNSTOWN,15902,Cambria,(814) 533-5601,(814) 533-5643,http://www.gjsd.net,Gerald L. Zahorchak,GLZahorchak@gjsd.net,,Michael Vuckovich,mvuckovich@gjsd.net,,Tony Penna,tpenna@gjsd.net,X,X,,,X,,,,,X,,X,X,,,X,X,,,,,,,,,,,,,X,,,X,,40.303074,-78.91114759999999
Northern Cambria High School,Northern Cambria,6,Public,Senior High,10/21/11,292,135,157,813 35TH ST,NORTHERN CAMBRIA,15714,Cambria,(814) 948-6800,(814) 948-5180,,John Jubas,,,Andy Paronish,aparonish@ncsd.k12.pa.us,,Jim Yeager,jyeager@ncsd.k12.pa.us,X,X,,X,X,X,,,X,,X,,X,X,,X,X,,,,,,,,,,,,,X,X,X,X,,40.6556367,-78.78042540000001
Penn Cambria High School,Penn Cambria,6,Public,Senior High,10/4/11,420,203,217,401 LINDEN AVE,CRESSON,16630,Cambria/Blair,(814) 886-8188,(814) 884-3977,,Mary beth Whited,,,William W Marshall,marshaww@pcam.org,,Chuck Terek,terekce@pcam.org,X,X,,X,X,X,,,,,,,X,,,X,X,,,,,,,,,,,,,,,X,X,,40.4645204,-78.58157189999997
Portage Area High School,Portage Area,6,Public,Senior High,10/6/11,196,84,112,85 MOUNTAIN AVE,PORTAGE,15946,Cambria,(814) 736-9636,(814) 736-9597,,Richard J. Bernazzoli,rbernazzoli@portageareasd.org,,Ralph J. Cecere,rcecere@portageareasd.org,,Jeremy Burkett,athletics@portageareasd.org,X,X,,X,X,X,X,,X,,,,X,,,X,X,,,,,,X,,,,,,,X,,,X,,40.3839927,-78.66588150000001
Richland High School,Richland,6,Public,Senior High,10/14/11,411,196,215,One Academic Avenue,JOHNSTOWN,15904,Cambria,(814) 266-6081,(814) 269-9506,http://www.richlandsd.com,Thomas P. Fleming,tfleming@richlandsd.com,,Brandon L Bailey,bbailey@richlandsd.com,,Fred Yanity,fyanity@richlandsd.com,X,X,,X,X,X,X,,,X,X,X,X,,,X,X,,,,,,,,,,,,,X,,,X,,40.2674209,-78.83891840000001
Westmont Hilltop High School,Westmont Hilltop,6,Public,Senior High,10/24/11,430,232,198,200 FAIR OAKS DR,JOHNSTOWN,15905,Cambria,(814) 255-8760,(814) 255-8763,,Susan J Anderson,sja@whsd.org,,Thomas R Mitchell,trm@whsd.org,,Thomas L Callihan,tlc@whsd.org,X,X,,X,X,X,X,,,X,X,X,X,,,X,X,,,X,X,X,,,,,,X,,X,,X,X,,40.3167918,-78.97794669999996
Cameron County High School,Cameron County,9,Public,Senior High,10/6/11,213,109,104,601 WOODLAND AVE,EMPORIUM,15834,Cameron,(814) 486-4000,(814) 486-4003,,Christine Holjencin,christine.holjencin@camcosd.org,,Lynn Newcomer,lynn.newcomer@camcosd.org,,Chris Horning,chris.horning@camcosd.org,X,X,,,X,X,,,,,,,X,,,X,X,,,,X,X,,,,,,,,X,,,,,41.5131933,-78.24596939999998
Grace Prep HS,,6,Private,Senior High,,59,30,29,848 Science Park Road,State College,16803,Centre,,,,,,,Patrick Sullivan,patsullivan@graceprep.com,,Daryl R Hoffman,darylhoffman@graceprep.com,,X,,,,,,,,X,,,,,,,X,,,X,,,,,,,,,,X,X,X,X,,40.78848319999999,-77.90588579999996
St Joseph's Catholic Academy,,6,Private,Senior High,10/4/11,41,26,15,901 Boalsburg Pike,Boalsburg,16827,Centre,(814) 808-6118,,,,,,F. christopher Chirieleison,cchirieleison@stjoeacad.org,,Jeff Wheeler,JWheeler@stjoeacad.org,,X,,X,X,X,X,,,,,,X,,,X,X,,,X,,,X,,,,,,,X,,X,X,,40.7857973,-77.7949117
Bald Eagle Area High School,Bald Eagle Area,6,Public,Senior High,10/5/11,413,182,231,751 S EAGLE VALLEY RD,WINGATE,16823-4799,Centre,(814) 355-4868,(814) 355-7197,http://www.beasd.org,Jeffrey Miles,jmiles@beasd.org,,David L Reichelderfer,dreichelderfer@beasd.org,,Douglas G Dyke,ddyke@beasd.org,X,X,,X,X,,X,,,X,,,X,,,X,X,,,X,,,,,,,,,,X,,,X,,40.9402862,-77.8008547
Bellefonte Area High School,Bellefonte Area,6,Public,Senior High,10/14/11,710,363,347,830 E BISHOP ST,BELLEFONTE,16823,Centre,(814) 355-4833,(814) 353-5320,http://www.basd.net,Cheryl Potteiger,cpotteig@basd.net,,Jennifer Brown,jbrown@basd.net,,Jonathan Clark,jclark@basd.net,X,X,X,X,X,X,,X,,X,X,,X,,,X,X,,,X,,,,,,,,X,,X,X,X,X,,40.9141112,-77.76143789999998
Penns Valley Area High School,Penns Valley Area,6,Public,Senior High,10/17/11,393,184,209,4545 PENNS VALLEY RD,SPRING MILLS,16875,Centre,(814) 422-2003,(814) 422-8280,http://www.pennsvalley.org,Brian Griffith,bgriffith@pennsvalley.org,,Dustin Dalton,ddalton@pennsvalley.org,,Donald Hosterman,dhosterm@pennsvalley.org,X,X,,X,X,X,,,,X,X,,X,,,X,X,,,,,,,,,,,X,,X,,X,X,,40.8753154,-77.53029759999998
Philipsburg Osceola Area High School,Philipsburg-Osceola Area,6,Public,Senior High,10/10/11,453,227,226,502 PHILIPS ST,PHILIPSBURG,16866,Centre/Clearfield,(814) 342-5983,(814) 342-2168,http://www.pomounties.org,Gregg Paladina,gpaladina@pomounties.org,,Robin Stewart,rstewart@pomounties.org,,Lee Fisher,lfisher@pomounties.org,X,X,,X,X,X,,,,X,,,X,,,X,X,,,X,,,X,,,,,X,,X,X,X,X,,40.8905118,-78.20985780000001
State College Area High School,State College Area,6,Public,Senior High,10/4/11,1771,868,903,653 WESTERLY PKWY,STATE COLLEGE,16801,Centre,(814) 231-1143,(814) 231-4176,http://www.scasd.org,Robert O'donnell,rjo11@scasd.org,,Scott Deshong,std14@scasd.org,,Peg Pennepacker,plp12@scasd.org,X,X,,X,X,X,X,X,,X,X,X,X,X,,X,X,,,X,,,,,,,,,,,,,X,,40.7826424,-77.8595985
Allegheny Clarion Valley High School,Allegheny Clarion Valley,9,Public,Senior High,10/17/11,225,120,105,762 Route 58,FOXBURG,16036,Clarion/Armstrong/Butler/Venango,(724) 659-4661,(724) 659-4774,,David Mcdeavitt,davidm@acvsd.org,,William Jordan,bill.jordan@acvsd.org,,Ronald Kerlin,ron.kerlin@acvsd.org,X,X,,X,X,X,,,,,,,X,,,,X,,X,X,X,X,X,,X,X,,X,,X,X,X,X,,41.1361119,-79.70461699999998
Clarion Area High School,Clarion Area,9,Public,Senior High,10/26/11,218,118,100,219 LIBERTY ST,CLARION,16214,Clarion,(814) 226-8112,(814) 226-9004,,Mike Stahlman,mstahlman@clarion-schools.com,,Randy Cathcart,rcathcart@clarion-schools.com,,Larry R. Wiser,lwiser@clarion-schools.com,X,X,,X,X,X,,,,,,,X,,,X,X,,,,X,,,,,X,,X,,X,,X,X,,41.2177729,-79.38974029999997
Clarion Limestone High School,Clarion-Limestone Area,9,Public,Senior High,10/3/11,266,138,128,4091 C-L SCHOOL RD,STRATTANVILLE,16258,Clarion/Jefferson,(814) 764-5111,(814) 764-5274,http://www.clarion-limestoneschool.com,John Johnson,jjohnson@clasd.net,,Mike Stimac,mstimac@clasd.net,,Doug Rodgers,drodgers@clasd.net,X,X,,X,X,X,,,,X,,,X,,,,X,,,X,X,,,,,,,,,X,,X,X,,41.18526079999999,-79.27565820000001
Keystone High School,Keystone,9,Public,Senior High,10/3/11,252,121,131,700 BEATTY AVE,KNOX,16232,Clarion,(814) 797-1261,(814) 797-1545,,Shawn Algoe,salgoe@keyknox.com,,Vicky S Walters,vwalters@keyknox.com,,Mark Whisner,mwhisner@keyknox.com,X,X,,X,X,X,,,,X,,,X,,,X,X,,,X,X,,,,,,,,,X,,X,,,41.2322116,-79.52957979999996
North Clarion High School,North Clarion County,9,Public,Senior High,10/11/11,173,95,78,10439 ROUTE 36,TIONESTA,16353,Clarion,(814) 744-8544,(814) 744-8762,,Steve Young,syoung@nccsd.org,,Ryan Cornecki,rcornecki@nccsd.org,,Bonnie S. Wolbert,bwolbert@nccsd.org,X,X,,X,,,,,,,,,X,,,,X,,,X,X,X,,,,,,X,,X,,X,X,,41.3952148,-79.35503240000003
Redbank Valley High School,Redbank Valley,9,Public,Senior High,10/20/11,304,165,139,910 BROAD ST,NEW BETHLEHEM,16242,Clarion,(814) 275-2424,(814) 275-2428,http://redbankvalley.net,,,,Jason Kerr,jkerr@redbankvalley.net,,Tom Logan,tlogan@redbankvalley.net,X,X,,,X,X,,,,X,,,X,,,X,X,X,X,X,X,X,X,,,,,X,,X,X,X,X,X,41.0035268,-79.32017480000002
Union High School,Union,9,Public,Senior High,10/10/11,146,62,84,354 BAKER ST STE 1,RIMERSBURG,16248,Clarion,(814) 473-3121,(814) 473-8201,,Jeannie Mccleary,McClearyjm@unionsd.net,,Michael Moore,moorema@unionsd.net,,Scott Kindel,kindelsr@unionsd.net,X,X,,X,X,X,,,,,,,X,,,,X,,,X,X,,,,,,,,,X,,X,,,41.0347344,-79.501755
Dubois Central Catholic High School,,9,Private,Senior High,10/10/11,116,64,52,PO BOX 567,DU BOIS,15801,Clearfield,(814) 371-3060,(814) 371-3215,http://www.cchs.pvt.k12.pa.us,,,,Dawn Bressler,dbressler@duboiscatholic.com,,John Wineberg,jwineberg@duboiscatholic.com,X,X,,X,,X,,,X,X,,X,,,,,X,,,X,,,,,,,,,,,X,X,X,,41.1210115,-78.7583257
Clearfield Area High School,Clearfield Area,9,Public,Senior High,10/10/11,643,316,327,2831 WASHINGTON AVE,CLEARFIELD,16830,Clearfield,(814) 765-2401,(814) 765-2405,http://www.clearfield.org,Terry Struble,tstruble@clearfield.org,,Timothy Janocko,timjanocko@clearfield.org,,Robert Gearhart,rgearhart@clearfield.org,X,X,,X,X,X,,,,X,X,X,X,,,X,X,,,X,,,,,,,,X,,,X,X,X,,40.992332,-78.48268100000001
Curwensville Area High School,Curwensville Area,9,Public,Senior High,10/3/11,307,151,156,650 BEECH ST,CURWENSVILLE,16833,Clearfield,(814) 236-1100,(814) 236-8981,,Ron Matchock,rmatchock@curwensville.org,,William Hayward,bhayward@curwensville.org,,Allen Leigey,aleigey@curwensville.org,X,X,,,X,X,,,,X,,,,,,X,X,,,X,,,,,,,,X,,,,X,X,,40.967416,-78.51803000000001
DuBois Area High School,Dubois Area,9,Public,Senior High,10/10/11,1059,496,563,425 ORIENT AVE,DUBOIS,15801,Clearfield/Jefferson,(814) 371-8111,(814) 371-1326,http://DASD.K12.PA.US,Mark Heckman,mheckman@dasd.k12.pa.us,,Jeff Vizza,jvizza@dasd.k12.pa.us,,Mike Erickson,merickson@dasd.k12.pa.us,X,X,,X,X,X,,,X,X,X,X,X,X,,X,X,,X,X,,X,X,,X,,,X,,,X,X,X,,41.1273442,-78.7480372
Harmony Area High School,Harmony Area,6,Public,Senior High,10/12/11,87,40,47,5239 RIDGE RD,WESTOVER,16692,Clearfield/Indiana,(814) 845-7655,(814) 845-2305,http://www.harmonyowls.com,Jill Dillon,jdillon@harmonyowls.com,,Teresa Young,MCCONNEL@HARMONYOWLS.COM,,Ralph J Butterworth,RALPHBUT@HARMONYOWLS.COM,X,X,,,,,,,,,,,,,,,X,,,X,,X,,,,,,X,,X,X,X,X,,40.778356,-78.726835
Moshannon Valley High School,Moshannon Valley,6,Public,Senior High,12/12/11,209,100,109,4934 GREEN ACRE RD,HOUTZDALE,16651,Clearfield,(814) 378-7616,(814) 378-5205,http://WWW.MOVALLEY.ORG,Tonya Devecchis-kerr,tdevecchis-kerr@movalley.org,,John W. Zesiger,jzesiger@movalley.org,,Tom Perry,tperry@movalley.org,X,X,,,X,,,,,,,,,,,X,X,,,X,,X,X,,,,,X,,X,X,X,,,40.829514,-78.40344600000003
West Branch High School,West Branch Area,6,Public,Senior High,10/10/11,286,134,152,444 ALLPORT CUTOFF,MORRISDALE,16858,Clearfield/Clinton,(814) 345-5615,(814) 345-6116,http://www.westbranch.org,Michelle Dutrow,mdutrow@westbranch.org,,Joseph R Holenchik,jholenchik@westbranch.org,,David L. Williamson,dwilliamson@westbranch.org,X,X,,X,X,,,,,,,,X,,,X,X,,,X,,X,X,,X,,,X,,X,X,X,X,,40.9783973,-78.20256069999999
Conneaut Area Senior High School,Conneaut,10,Public,Senior High,,597,278,319,302 WEST SCHOOL DRIVE,LINESVILLE,16424,Crawford,(814) 683-5551,(814) 683-5221,http://conneautsd.org,,,Sharon D Sielski,ssielski@conneautsd.org,Brandon Crum,brandon.crum@conneautsd.org,X,X,X,X,X,,,,X,,,,X,,X,,X,,,X,,,,,,,X,,,,,,,,,,41.6545983,-80.41818080000002
Cochranton Area High School,Crawford Central,10,Public,Senior High,10/14/11,204,101,103,105 SECOND ST,COCHRANTON,16314,Crawford/Mercer,(814) 425-7421,(814) 425-2071,,Charles Heller,charles.heller@craw.org,Donald K Wigton,donald.wigton@craw.org,Shawn Ford,shawn.ford@craw.org,X,X,X,X,,,,,,,,,X,,X,,X,,X,,,,,,,,,,X,,X,X,,,,,41.5243271,-80.0516179
Meadville Area High School,Crawford Central,10,Public,Senior High,10/13/11,699,334,365,930 NORTH ST,MEADVILLE,16335,Crawford/Mercer,(814) 336-1121,(814) 337-1486,http://www.meadvilleathletics.com,Charles Heller,Charles.heller@craw.org,John Higgins,john.higgins@craw.org,Jon Frye,jon.frye@craw.org,X,X,X,X,X,,X,,X,X,X,X,X,,X,,X,,,,,,,,,,,,,,,,,,,,41.63519900000001,-80.12695839999998
Jamestown Area High School,Jamestown Area,10,Public,Senior High,10/20/11,138,70,68,204 SHENANGO ST,JAMESTOWN,16134,Crawford/Mercer,(724) 932-3186,(724) 932-5632,,Shane Murray,shane_murray@jamestown.k12.pa.us,Brian Keyser,brian_keyser@jamestown.k12.pa.us,Marilyn Hutchinson,marilyn_hutchinson@jamestown.k12.pa.us,X,X,X,,X,,,,,,,,,,X,,X,,X,,,X,,X,,,X,,X,,X,X,,,,,41.4846186,-80.43385719999998
Cambridge Springs High School,Penncrest,10,Public,Senior High,10/20/11,316,167,149,641 VENANGO AVE,CAMBRIDGE SPRINGS,16403,Crawford/Venango,(814) 398-4631,(814) 398-8343,,Constance Youngblood,cyoungblood@pencrest.org,David Nuhfer,dnuhfer@penncrest.org,Clint Rauscher,crauscher@penncrest.org,X,X,X,X,X,,,,,,,,X,,X,,X,,X,,,,,,,,,,,,X,X,,,,,41.80054330000001,-80.06598259999998
Maplewood High School,Penncrest,10,Public,Senior High,10/20/11,313,149,164,30383 GUYS MILLS RD,GUYS MILLS,16327,Crawford,(814) 337-1673,(814) 337-1755,http://www.penncrest.iu5.org,Constance Youngblood,cyoungblood@penncrest.org,Michael Costa,mcosta@penncrest.org,Casey Young,cayoung@penncrest.org,X,X,X,X,X,,,,X,,,,X,,X,,X,X,X,,,X,,,,,X,,X,,X,X,,,,,41.6565462,-79.9391549
Saegertown High School,Penncrest,10,Public,Senior High,10/20/11,337,139,198,18079 MOOK RD,SAEGERTOWN,16433,Crawford,(814) 763-2615,(814) 763-6702,,Connie Youngblood,cyoungblood@penncrest.iu5.org,Douglas M. Wilson,dwilson@penncrest.org,Greg Molnar,gmolnar@penncrest.org,X,X,X,X,X,,,,X,,,,X,,X,,X,X,X,,,,,,,,X,,,,,X,,,,,41.72468,-80.16496589999997
Titusville High School,Titusville Area,10,Public,Senior High,10/13/11,478,245,233,302 E WALNUT ST,TITUSVILLE,16354,Crawford/Venango,(814) 827-2715,(814) 827-0551,http://www.gorockets.org,Karen E Jez,kjez@gorockets.org,Scott R Davie,sdavie@gorockets.org,James E Come,jcome@gorockets.org,X,X,X,X,X,,,,X,X,X,X,,,X,,X,,X,X,X,,,X,X,,X,,X,X,X,X,,,,,41.629478,-79.668474
Elk County Catholic High School,,9,Private,Senior High,10/14/11,201,111,90,600 MAURUS ST,SAINT MARYS,15857,Elk,(814) 834-7800,(814) 781-3441,http://www.ecchs.dhs.org,,,,Sandra Florig,florigs@eccss.org,,Aaron J Straub,strauba@eccss.org,X,X,,X,X,X,,,,X,,X,X,,,,X,X,X,X,,X,X,,X,X,,X,,X,X,X,X,X,41.427745,-78.57203400000003
Johnsonburg Area High School,Johnsonburg Area,9,Public,Senior High,10/3/11,153,72,81,315 HIGH SCHOOL ROAD,JOHNSONBURG,15845,Elk,(814) 965-2556,(814) 965-2776,,Dennis Crotzer,,,Brock Benson,,,Emily Mitchell,ad@jasd.k12.pa.us,X,X,,X,,X,,,,,,X,X,,,X,X,,,X,,,,,,,,X,,X,,,X,,41.50785399999999,-78.68378799999999
Ridgway Area High School,Ridgway Area,9,Public,Senior High,10/19/11,232,110,122,1403 HILL ST,RIDGWAY,15853,Elk,(814) 773-3164,(814) 776-4247,http://www.ridgwayareaschooldistrict.com,Mike O'brien,obrienmike@ridgwayedu.com,,Heather Mcmahon-vargas,mcmahonheather@ridgwayedu.com,,Joseph R. Depanfilis,depanfilisjoseph@ridgwayedu.com,X,X,,X,X,X,,,,X,,,,,,X,X,,,X,,,,,,X,,X,,X,,,X,,41.432985,-78.719359
Saint Marys Area High School,Saint Marys Area,9,Public,Senior High,10/13/11,547,260,287,977 S SAINT MARYS RD,SAINT MARYS,15857,Elk,(814) 834-7831,(814) 781-2190,http://www.smasd.org,Ann Kearney,akearney@smasd.org,,Joshua Williams,jwilliams@smasd.org,,Terry L Straub,tstraub@smasd.org,X,X,,X,X,X,,,,X,X,X,X,,,X,X,,X,,,,,,,,,X,,X,,X,X,,41.402243,-78.5604492
Cathedral Preparatory School,START,10,Private,Senior High,10/3/11,433,0,433,225 W 9TH ST,ERIE,16501,Erie,(814) 453-7737,(814) 455-3985,http://www.cathedral-prep.com,Father nick Rouch,,,Scott Jabo,Scott.Jabo@prep-villa.com,,Bill Flanagan,bill.flanagan@prep-villa.com,X,X,,X,X,X,X,X,,X,X,X,X,,X,X,X,X,X,,X,,,,,,,,,X,,,,,42.1246505,-80.08842620000001
Erie First Christian Academy,,10,Private,Senior High,,70,32,38,8150 OLIVER ROAD,ERIE,16509,Erie,(814) 866-6979,(814) 866-9983,,,,,Phillip A Gernovich,pgernovich@efcaonline.org,,,,,X,,,,,,,,,,,,,,,X,,,,X,,,,,,,,,X,,,,,42.044711,-80.087041
Mercyhurst Preparatory  School,,10,Private,Senior High,10/3/11,472,287,185,538 E GRANDVIEW BLVD,ERIE,16504,Erie,(814) 824-2210,(814) 824-2116,,,,,Deborah Laughlin,dlaughlin@mpslakers.com,,Dan Perfetto,dperfetto@mpslakers.com,X,X,,X,X,X,,,,X,X,X,X,,,,X,,,,,,,,,,,X,,X,,,X,,42.1009688,-80.05102160000001
Villa Maria Academy High School,,10,Private,Senior High,10/3/11,243,243,0,2403 W 8TH ST,ERIE,16505,Erie,(814) 838-2061,(814) 838-0376,,,,,Mary Drexler,mary.drexler@prep-villa.com,,Daniel Ek,dan.ek@prep-villa.com,,,,,,,,,,,,,,,,,X,,,,,,,,,,,X,,X,,,X,,42.1059569,-80.13695799999999
Corry Area High School,Corry Area,10,Public,Senior High,10/13/11,579,295,284,534 E PLEASANT ST,CORRY,16407,Erie/Crawford/Warren,(814) 665-8297,(814) 663-0722,http://www.corrysd.net,Bill Nichols,wnichols@corrysd.net,,Kelly Cragg,kcragg@corrysd.net,,Patti Brown,pbrown@corrysd.net,X,X,,X,X,X,,,,X,X,X,X,,,X,X,,,X,,,,,,,,X,,,X,X,,,41.9194618,-79.62675860000002
Central Tech High School,Erie City,10,Public,Senior High,10/14/11,972,511,461,3325 CHERRY ST,ERIE,16508,Erie,(814) 874-6200,(814) 874-6207,,Jay Badams,,,Matthew Pundt,mpundt@eriesd.org,,Greg Holland,gholland@eriesd.org,X,X,,X,X,X,,,,X,X,,X,,,X,X,,,X,,,,,,,,,,,,X,,,42.10193599999999,-80.081977
East High School,Erie City,10,Public,Senior High,10/14/11,799,400,399,1001 ATKINS ST,ERIE,16503,Erie,(814) 874-6400,(814) 874-6407,,,,,James Smith,jsmith@eriesd.org,,Dan Chojnacki,dchojnacki@eriesd.org,X,X,,X,X,,,,,X,X,,X,,,X,X,,,X,,,,,,,,,,,X,X,X,,42.13728320000001,-80.06274910000002
Strong Vincent High School,Erie City,10,Public,Senior High,10/15/11,800,410,390,1330 W 8TH ST,ERIE,16502,Erie,(814) 874-6500,(814) 874-6507,http://www.svcolonels.com,Jay D. Badams,jbadams@eriesd.org,,Scherry Prater,sprater@eriesd.org,,Ronald J. Niebauer,rniebauer@eriesd.org,X,X,,X,X,X,,,,X,X,,X,,,X,X,,X,X,X,X,X,,X,X,X,X,,X,X,X,X,,42.11778,-80.113632
Fairview High School,Fairview,10,Public,Senior High,10/13/11,409,203,206,7460 MCCRAY RD,FAIRVIEW,16415,Erie,(814) 474-2600,(814) 474-1637,,Erik Kincade,ekincade@fairview.iu5.org,,David Park,dpark@fairview.iu5.org,,Mr. jerry Lightner,glightner@fairview.iu5.org,X,X,,X,X,X,,X,,X,X,X,X,X,,,X,,,X,,,,,,,,,,,X,X,X,,42.021597,-80.24620700000003
Fort LeBoeuf High School,Fort Leboeuf,10,Public,Senior High,10/12/11,537,270,267,931 HIGH ST,WATERFORD,16441,Erie,(814) 796-2616,(814) 796-2141,,Debra Spaulding,spauldingd@fortleboeuf.net,,Martin Rimpa,rimpam@fortleboeuf.net,,Steve Pizzo,pizzos@fortleboeuf.net,X,X,,X,X,X,,,,X,,,X,X,,X,X,,,,,X,X,,,,,X,,X,X,X,,,41.9483143,-79.98806719999999
General McLane High School,General Mclane,10,Public,Senior High,10/17/11,553,237,316,11761 EDINBORO RD,EDINBORO,16412,Erie,(814) 273-1033,(814) 273-1035,http://GMSD.IU5.ORG,Richard Scaletta,scaletta.r@generalmclane.org,,Daniel Mennow,mennow.d@generalmclane.org,,Robert Kennerknecht,kennerknecht.r@generalmclane.org,X,X,,X,X,X,,,,X,X,X,X,,,X,X,,,,,,,,,,,X,,,,X,,,41.91548299999999,-80.12077499999998
Girard High School,Girard,10,Public,Senior High,10/4/11,486,223,263,1135 LAKE ST,GIRARD,16417,Erie,(814) 774-5607,(814) 774-4530,http://GSD.K12.PA.US,Dr. james Tracy,jtracy@gsd.k12.pa.us,,Gregg Mcclelland,gmcclelland@gsd.k12.pa.us,,Mark Amenta,mamenta@gsd.k12.pa.us,X,X,,X,X,X,,,,X,X,X,X,,,X,X,,,X,,,,,,,,,,X,,X,X,,42.0081103,-80.33356549999996
Harbor Creek High School,Harbor Creek,10,Public,Senior High,10/12/11,524,249,275,6375 BUFFALO RD,HARBORCREEK,16421,Erie,(814) 897-2100,(814) 897-2136,http://www.hcsd.iu5.org,Patricia Hawley,phawley@hcsd.iu5.org,,Andrew J Krahe,akrahe@hcsd.iu5.org,,Daniel J Budziszewski,dbudziszewski@hcsd.iu5.org,X,X,,X,X,X,,,,X,X,X,X,,,X,X,,,,,,,,,,,,,X,,,,,42.161813,-79.954248
Iroquois High School,Iroquois,10,Public,Senior High,10/13/11,284,139,145,4301 MAIN ST,ERIE,16511,Erie,(814) 899-7643,(814) 897-2410,http://isd.iu5.org,Shane Murray,smurray@iroquois.iu5.org,,James A Infantino,jinfantino@iroquois.iu5.org,,Richard S. Bonniger,rbonniger@iroquois.iu5.org,X,X,,X,X,X,,,,X,X,,X,,,X,X,,,X,,,X,,,,,X,,X,,X,X,,42.150466,-80.00969900000001
McDowell High School,Millcreek Township,10,Public,Senior High,10/12/11,1881,886,995,3580 W 38TH ST,ERIE,16506,Erie,(814) 835-5428,(814) 836-6811,,William Hall,HALL@MTSD.ORG,,Timothy J Rankin,RANKIN@MTSD.ORG,,Mark Becker,MBECKER@MTSD.ORG,X,X,,X,X,X,X,X,,X,X,X,X,X,X,X,X,,,X,,,,,,,,X,,X,,X,,,42.0725904,-80.14693779999999
North East High School,North East,10,Public,Senior High,10/14/11,404,195,209,1901 FREEPORT RD,NORTH EAST,16428,Erie,(814) 725-8671,(814) 725-3357,http://NESD.K12.PA.US,James Brotz,jbrotz@nesd1.k12.pa.us,,Regan Tanner,rtanner@nesd1.k12.pa.us,,James Nowakowski,jnowakowski@nesd1.k12.pa.us,X,X,,X,X,X,,,,X,X,,X,,,X,X,X,,X,X,X,X,,,,,X,,X,X,X,X,X,42.2229641,-79.83331040000002
Northwestern High School,Northwestern,10,Public,Senior High,10/14/11,427,204,223,200 HARTHAN WAY,ALBION,16401,Erie,(814) 756-9400,(814) 756-9411,http://www.nwsd.org,Karen Downie,kdownie@nwsd.org,,Daniel A. Shreve,dshreve@nwsd.org,,Joseph B. Nagle,jnagle@nwsd.org,X,X,,X,X,,,,,,,,X,,,X,X,,,X,X,,,,,,,,,X,,X,X,,41.8891497,-80.35378229999998
Union City Area High School,Union City Area,10,Public,Senior High,10/12/11,277,140,137,105 Concord Street,Union City,16438,Erie/Crawford,(814) 438-7673,(814) 438-8079,http://www.ucasd.iu5.org,Sandra Myers,smyers@ucasd.org,,Melissa Tomcho,mtomcho@ucasd.org,,Daniel Keefer,dkeefer@ucasd.org,X,X,,X,X,X,,,,,X,,X,,,X,X,,,,X,X,,,,,,X,,X,,,,,41.887981,-79.840101
Seneca High School,Wattsburg Area,10,Public,Senior High,10/13/11,382,196,186,10770 WATTSBURG RD,ERIE,16509,Erie,(814) 824-3400,(814) 825-2262,,Kenneth Berlin,ken.berlin@wattsburg.org,,Keith Miller,keith.miller@wattsburg.org,,Kristofer Hudnall,kristofer.hudnall@wattsburg.org,X,X,,X,X,X,,,,X,,,X,,,X,X,,,,X,,,,,,,,,X,,,,,42.06795109999999,-79.9566261
Geibel Catholic High School,,7,Private,Senior High,10/25/11,89,43,46,611 E CRAWFORD AVE,CONNELLSVILLE,15425,Fayette,(724) 628-5600,(724) 626-5700,,Trent Bocan,tbocan@dioceseofgreensburg.org,,Donald M Favero,dfavero@dioceseofgreensburg.org,,Shawn Holup,sholup@dioceseofgreensburg.org,X,X,,,X,X,,,,X,,,,,,,X,,,,,,,,,,,,,,,,X,,40.0248765,-79.58045849999996
Albert Gallatin High School,Albert Gallatin Area,7,Public,Senior High,10/4/11,922,432,490,1119 TOWNSHIP DRIVE,UNIONTOWN,15401,Fayette,(724) 564-2024,(724) 564-0557,,Carl Bezjak,carl.bezjak@albertgallatin.k12.pa.us,,Jason Hutchinson,jason.hutchinson@agasd.org,,Duane Dupont,duane.dupont@albertgallatin.k12.pa.us,X,X,,X,X,X,,,,X,,,X,,,X,X,,,X,,,,,,,,,,X,,X,X,,39.8320502,-79.78350369999998
Brownsville Area High School,Brownsville Area,7,Public,Senior High,10/4/11,489,263,226,1 FALCON DRIVE,BROWNSVILLE,15417,Fayette/Washington,(724) 785-8200,(724) 785-8930,http://www.basd.org,Philip J. Savini,psavini@basd.org,,Jason Kushak,jkushak@basd.org,,Scott Roebuck,sroebuck@basd.org,X,X,,X,X,X,,,,X,,X,X,,,,X,,,X,,,,,,,,,,X,,X,X,,39.9692418,-79.87699199999997
Connellsville Area High School,Connellsville Area,7,Public,Senior High,10/6/11,1279,622,657,201 FALCON DR,CONNELLSVILLE,15425,Fayette,(724) 628-1350,(724) 628-0280,,Daniel Lujetic,dlujetic@casdfalcons.org,,Nick Bosnic,nbosnic@casdfalcons.org,,James Lembo,JLEMBO@CASDFALCONS.ORG,X,X,,X,X,X,,,,X,X,X,X,,,X,X,,X,X,X,X,X,,,X,,X,,X,,X,X,,40.0250676,-79.5737815
Frazier High School,Frazier,7,Public,Senior High,10/4/11,281,134,147,142 CONSTITUTION STREET,PERRYOPOLIS,15473,Fayette,(724) 736-4426,(724) 736-0688,http://www.frazierschooldistrict.org,David Blozowich,dblozowich@fraziersd.org,,Chris Sefcheck,csefcheck@fraziersd.org,,Michael V. Turek,mturek@fraziersd.org,X,X,,X,X,X,,,,,,X,X,,,,X,,,X,X,,,,,,,X,,X,,X,X,,40.088239,-79.7562279
Laurel Highlands High School,Laurel Highlands,7,Public,Senior High,10/13/11,829,423,406,300 BAILEY AVE,UNIONTOWN,15401,Fayette,(724) 437-4741,(724) 437-8929,,Jesse Wallace,Wallacej@LHSD.ORG,,John Diamond,diamondj@lhsd.org,,Mark John,mjohn@lhsd.org,X,X,,X,X,X,,,,X,X,,X,,,X,X,,,,,X,,,,,,X,,X,X,X,X,,39.9098469,-79.71381020000001
Uniontown Area High School,Uniontown Area,7,Public,Senior High,10/7/11,764,385,379,146 E FAYETTE ST,UNIONTOWN,15401,Fayette,(724) 439-5000,(724) 439-5004,http://www.uniontown.k12.pa.us,Charles Machesky,,,Robert Manges,mangesb@mail.uniontown.k12.pa.us,,Aaron Scott,aaron.scott@uasdraiders.org,X,X,,X,X,X,,,,X,X,,X,,,,,,,,,,,,,,,,,,,,,,39.8964928,-79.72033679999998
Abraxas I / Arlene Lissner High School,,9,Private,Senior High,10/4/11,118,4,114,Post Office Box 59,Marienville,16239,Forest,(814) 927-6615,(814) 927-8836,,,,,Roland Reitz,rreitz@abraxasyfs.com,,James Michael Scarantine,jscarantine@abraxasyfs.com,,,,,,,,,,,,,,,,,X,,,,X,,,,,X,,X,,X,,X,X,,41.46914719999999,-79.12350129999999
East Forest High School,Forest Area,9,Public,Senior High,10/6/11,52,27,25,120 Birch Street,MARIENVILLE,16239,Forest/Elk/Venango,(814) 927-6688,(814) 927-8452,,Amanda Hetrick,ahetrick@forestareaschools.org,,Debra Arner,darner@forestareaschools.org,,Mike Cradduck,mcradduck@forestareaschools.org,X,X,,,,,,,,,,,,,,,X,X,,X,X,X,X,,X,X,,X,,X,X,X,X,,41.4726752,-79.12337439999999
West Forest High School,Forest Area,9,Public,Senior High,10/10/11,79,40,39,22318 Route 62,TIONESTA,16353,Forest/Elk/Venango,(814) 755-3611,(814) 755-2427,,Amanda Hetrick,ahetrick@forestareaschools.org,,Craig Kasunic,ckasunic@forestareaschools.org,,Misty Hartle,mhartle@forestareaschools.org,,X,,,,X,,,,X,,,,,,,X,,,,X,,,,,X,,,,X,,X,X,,41.58209249999999,-79.40222979999999
Carmichaels Area High School,Carmichaels Area,7,Public,Senior High,10/3/11,250,126,124,300 W GREENE ST,CARMICHAELS,15320,Greene,(724) 966-5045,(724) 966-5556,http://carmarea.org,Craig Baily,cbaily@carmarea.org,,John V Menhart,jmenhar@carmarea.org,,John E Krajnak,jkrajnak@carmarea.org,X,X,,,X,X,,,,,,,,,,,X,,,X,X,,,,,,,,,,,,X,,39.8965584,-79.97807190000003
Waynesburg Central High School,Central Greene,7,Public,Senior High,10/3/11,506,241,265,30 ZIMMERMAN DR,WAYNESBURG,15370,Greene,(724) 852-1050,(724) 627-4365,,Brian Uplinger,buplinger@cgsd.org,,David Mason,dmason@cgsd.org,,Russ Moore,rmoore@cgsd.org,X,X,,X,X,X,,,X,X,,,X,,,X,X,,,X,,,X,,,,,X,,X,,X,X,,39.8952637,-80.1486433
Jefferson Morgan High School,Jefferson-Morgan,7,Public,Senior High,10/3/11,232,98,134,1351 JEFFERSON ROAD,JEFFERSON,15344,Greene,(724) 883-2310,(724) 883-4560,,Donna Marie Furnier,DFURNIER@JMSD.ORG,,Bart Donley,bdonley@jmsd.org,,Scot Moore,smoore@jmsd.org,X,X,,,X,X,,,,,,,X,,,X,X,,,X,,,,,,,,,,,,X,X,,39.9282477,-80.0640836
Mapletown High School,Southeastern Greene,7,Public,Senior High,10/14/11,138,70,68,1000 MAPLETOWN ROAD,GREENSBORO,15338,Greene,(724) 943-3401,(724) 943-4769,http://www.segsd.org,William R Henderson,henderson.william@segsd.org,,Jason Pappas,pappas.jason@segsd.org,,Linda Messich,messich.linda@segsd.org,X,X,,,X,,,,,,,,,,,X,X,,X,X,X,X,X,,,,,X,,X,X,X,X,,39.8043396,-79.93800240000002
West Greene High School,West Greene,7,Public,Senior High,10/4/11,226,88,138,1352 HARGUS CREEK ROAD,WAYNESBURG,15370,Greene,(724) 499-5183,(724) 499-5524,"http://www.wgsd,org",Thelma Szarell,SZARELLT@WGSD.ORG,,Scott Sakai,sakais@wgsd.org,,Bill Simms,SIMMSB@wgsd.org,X,X,,X,X,,,,X,,,,X,,,X,X,,,X,X,,,,,,,X,,,,X,X,,39.8535349,-80.2804744
Huntingdon Area High School,Huntingdon Area,6,Public,Senior High,10/13/11,517,247,270,2400 CASSADY AVE STE 1,HUNTINGDON,16652,Huntingdon,(814) 643-1080,(814) 643-3800,http://WWW.HUNTSD.ORG,Fred Foster,ffoster@huntsd.org,,,,,Dean Rossi,deanrossi@huntsd.org,X,X,,,X,X,,,,X,X,X,X,X,,X,X,,,,,,,,,,,,,,,X,X,,40.5030411,-78.01164489999996
Juniata Valley High School,Juniata Valley,6,Public,Senior High,10/26/11,207,110,97,7775 Juniata Valley Pike,ALEXANDRIA,16611,Huntingdon,(814) 669-4401,(814) 669-4421,,David E. Christopher,dchristopher@jvsd.org,,Michael L. Estep,mestep@jvsd.org,,Diane I Price,dprice@jvsd.org,X,X,,X,X,,,,,,,,X,,,X,X,X,X,X,X,X,X,,,,,X,,X,,X,X,,40.5627808,-78.07642529999998
Mount Union Area High School,Mount Union Area,6,Public,Senior High,10/5/11,367,181,186,706 N SHAVER ST,MOUNT UNION,17066,Huntingdon/Mifflin,(814) 542-2518,(814) 542-5451,http://www.muasd.org,Brett Gilliland,bgilliland@muasd.org,,Curt Whitesel,cwhitesel@muasd.org,,Bill Shives,bshives@muasd.org,X,X,,X,X,X,,,,,,,X,,,X,X,,,,,X,X,,,,,X,,X,X,X,,,40.39008,-77.8767479
Southern Huntingdon County Senior High School,South Huntingdon County,6,Public,Senior High,10/3/11,299,142,157,10339 Pogue Road,THREE SPRINGS,17264,Huntingdon,(814) 447-5529,(814) 447-3750,,Tod Kline,,,Micheal Adamek,madamek@tiu11.org,,Philip Speck,pspeck@tiu11.org,X,X,,,X,,,,,,,,X,,,X,X,,X,X,X,,,,,,,X,,,,X,,,40.1950811,-77.98305649999998
Blairsville High School,Blairsville-Saltsburg,6,Public,Senior High,10/12/11,295,141,154,100 SCHOOL LN,BLAIRSVILLE,15717,Indiana/Westmoreland,(724) 459-8882,(724) 459-3392,,Tammy Whitfield,whitfield@b-ssd.org,,Jeff Soles,solesjeff@b-ssd.org,,Jim Buckles,buckles@b-ssd.org,X,X,,X,X,X,,,,,,,X,,,X,X,,X,X,X,X,X,,X,X,,X,,X,X,X,X,,40.4489695,-79.21917669999999
Saltsburg High School,Blairsville-Saltsburg,6,Public,Senior High,10/5/11,205,113,92,84 TROJAN LN,SALTSBURG,15681,Indiana/Westmoreland,(724) 639-3547,(724) 639-0071,http://www.b-ssd.k12.pa.us,Tammy Whitfield,whitfield@b-ssd.org,,Allan Berkhimer,berkhimer@b-ssd.org,,Glenn Richards,richardsg@b-ssd.org,X,X,,,X,X,,,,,,,X,,,,X,,,X,X,,,,,,,X,,,,X,X,,40.4918132,-79.44961940000002
Homer Center High School,Homer Center,6,Public,Senior High,10/14/11,222,106,116,70 WILDCAT LN,HOMER CITY,15748,Indiana,(724) 479-8026,(724) 479-4236,,Charles Koren,ckoren@homercenter.org,,Jody Rainey,jrainey@homercenter.org,,Greg Page,gpage@homercenter.org,X,X,,X,X,X,,,,,,,X,,,,X,,X,X,,,,,,,,,,X,X,,X,,40.5326238,-79.15995049999998
Indiana Area Senior High School,Indiana Area,7,Public,Senior High,10/3/11,664,322,342,450 N 5TH ST,INDIANA,15701,Indiana,(724) 463-8562,(724) 463-1394,http://iasd.cc,Dale Kirsch,dkirsch@iasd.cc,,Wade L Mcelheny,wmcelheny@iasd.cc,,Patrick Snyder,psnyder@iasd.cc,X,X,,X,X,X,X,X,X,X,X,X,X,,,X,X,,,,,,,,,,,,,,X,,X,,40.6307038,-79.14741270000002
Marion Center Area High School,Marion Center Area,6,Public,Senior High,10/5/11,338,157,181,PO BOX 209,MARION CENTER,15759,Indiana,(724) 397-5551,(724) 397-9162,http://www.mcasd.net,Frank Garritano,fgarritano@mcasd.net,,Matt Jioio,mjioio@mcasd.net,,John D Bomboy,jbomboy@mcasd.net,X,X,,X,X,,,,,,X,,X,,,X,X,,X,X,X,,,,,,,,,X,,X,,,40.7700641,-79.05003399999998
Penns Manor Area High School,Penns Manor Area,6,Public,Senior High,10/12/11,191,97,94,6003 ROUTE 553 HWY,CLYMER,15728,Indiana,(724) 254-2666,(724) 254-3417,http://pennsmanor.org,Thomas Kakabar,kakabatj@pennsmanor.org,,Daren K Johnston,johnstda@pennsmanor.org,,Mike Reilly,Mreilly@pennsmanor.org,X,X,,X,X,,,,,,,,X,,,,X,,,X,X,,,,,,,,,X,,X,,,40.6384647,-78.9446668
Purchase Line High School,Purchase Line,6,Public,Senior High,10/4/11,278,126,152,PO BOX 374,COMMODORE,15729,Indiana/Clearfield,(724) 254-4312,(724) 254-2306,http://www.plsd.k12.pa.us,Paul Gallagher,Gallagherp@plsd.k12.pa.us,,James R Price,Pricej@plsd.k12.pa.us,,Isaac Solak,Solaki@plsd.k12.pa.us,X,X,,X,X,,,,,,,,X,,,,X,,,X,,,,,,,,,,X,,X,X,,40.7131207,-78.9433646
United High School,United,6,Public,Senior High,10/3/11,277,126,151,10780 ROUTE 56 HWY E,ARMAGH,15920,Indiana,(814) 446-5615,(814) 446-6615,,Barbara Parkins,,,Mike Worthington,mworthington@unitedsd.net,,Cullen Stokes,cstokes@unitedsd.net,X,X,,X,X,X,,,,X,,,X,,,X,X,,,X,,,,,,,,,,,,,X,,40.4665778,-79.0440724
Punxsutawney Christian High School,,9,Private,Senior High,10/20/11,11,4,7,216 N Jefferson Street,PUNXSUTAWNEY,15767,Jefferson,(814) 938-2295,(814) 938-2251,http://www.geocities.com/pcshomework,,,,Tonya Woodel,tonyawoodel@gmail.com,,,,,,,,,,,,,,,,,,,,,,,,X,,,,,,,,,X,,,,,40.94492899999999,-78.96997899999997
Brockway Area High School,Brockway Area,9,Public,Senior High,10/7/11,252,105,147,100 ALEXANDER ST,BROCKWAY,15824,Jefferson/Elk,(814) 265-8414,(814) 265-8413,,Dan Hawkins,dhawkins@brockway.k12.pa.us,,Denise E Carlini,dcarlini@brockway.k12.pa.us,,Peter Grecco,pgrecco@brockway.k12.pa.us,X,X,,X,X,X,,,,X,,X,,,,X,X,,,X,,,X,,,,,,,,,X,,,41.2506938,-78.80272049999996
Brookville Area High School,Brookville Area,9,Public,Senior High,10/12/11,412,199,213,PO Box 479,BROOKVILLE,15825,Jefferson,(814) 849-8372,(814) 849-1117,,Sandra Craft,dhetrick@basd.us,,Robert Rocco,rrocco@basd.us,,David Osborne,dosborne@basd.us,X,X,,X,X,X,,,,X,X,,X,,,X,X,,X,X,,X,X,,,,,X,,,X,X,X,,41.1611746,-79.0830924
Punxsutawney Area High School,Punxsutawney Area,9,Public,Senior High,10/6/11,649,330,319,500 NORTH FINDLEY ST,PUNXSUTAWNEY,15767,Jefferson/Indiana,(814) 938-5151,(814) 938-7612,http://www.punxsy.k12.pa.us,Keith S. Wolfe,kwolfe@punxsy.k12.pa.us,,David E London,dlondon@punxsy.k12.pa.us,,Bill Vassallo,wvassallo@punxsy.k12.pa.us,X,X,,X,X,X,X,,,X,,X,X,,,X,X,,X,,,,X,,,,,,,X,,,,,40.9502919,-78.97927649999997
Ellwood City High School,Ellwood City Area,7,Public,Senior High,10/12/11,529,268,261,501 CRESCENT AVE,ELLWOOD CITY,16117,Lawrence,(724) 752-1591,(724) 758-4623,,Frank Aloi,faloi@ellwood.k12.pa.us,,Kirk Lape,klape@ellwood.k12.pa.us,,Anthony Pietrcollo,apietrcollo@ellwood.k12.pa.us,X,X,,X,X,X,,,,,,X,X,,,X,,,,,,,,,,,,,,,,,,,40.856591,-80.286474
Laurel High School,Laurel,7,Public,Senior High,10/12/11,346,172,174,2497 HARLANSBURG RD,NEW CASTLE,16101,Lawrence,(724) 658-9056,(724) 598-9947,,Sandra Hennon,hennosl@laurel.k12.pa.us,,Daniel T Svirbly,dsvirbly@laurel.k12.pa.us,,Michael Tinstman,tinstsm@laurel.k12.pa.us,X,X,,X,X,X,,,,,,,X,,,X,,,,X,,,,,,,,,,,,,,,41.0143525,-80.26074489999996
Mohawk Area High School,Mohawk Area,7,Public,Senior High,10/17/11,406,186,220,Mohawk School Road,BESSEMER,16112,Lawrence,(724) 667-7782,(724) 667-0602,http://www.mohawk.k12.pa.us,Kathleen Kwolek,kkwolek@mohawk.k12.pa.us,,Raymond c. Omer,romer@mohawk.k12.pa.us,,Jared Stratt0n,jstratton@mohawk.k12.pa.us,X,X,,X,X,X,,,,X,,,X,,,,X,,X,X,,,,,,,,,,,,X,,,40.985988,-80.45640300000002
Neshannock High School,Neshannock Township,7,Public,Senior High,10/11/11,315,146,169,3834 MITCHELL RD,NEW CASTLE,16105,Lawrence,(724) 658-5513,(724) 657-8169,,Mary Todora,,,Luca Passarelli,,,Rob Nogay,rnogay@neshannock.k12.pa.us,X,X,,X,X,X,,,,X,,X,X,,,,X,,X,,,,,,,,,X,,X,,,X,,41.06491279999999,-80.3461696
New Castle Area Junior/SENIOR High School,New Castle Area,7,Public,Senior High,10/3/11,844,390,454,300 E LINCOLN AVE,NEW CASTLE,16101,Lawrence,(724) 656-4700,(724) 658-3916,http://www.ncasd.com,John J Sarandrea,jsarandrea@ncasd.com,,Richard A. Litrenta,rlitrenta@ncasd.com,,Samuel Flora,SAM26ERNC@YAHOO.COM,X,X,,X,X,X,,,,,,,X,,,,X,,,X,,,,,X,,,X,,,,X,,,41.0055289,-80.3400795
Shenango High School,Shenango Area,7,Public,Senior High,10/13/11,313,141,172,2550 ELLWOOD RD,NEW CASTLE,16101,Lawrence,(724) 658-5537,(724) 658-7584,,,,,Joseph Mccormick,jmccormick@shenango.k12.pa.us,,Jan Budai,jbudai@shenango.k12.pa.us,X,X,,X,X,X,,,,,,,X,,,,X,,,,,,,,,,,,,X,,,X,,40.9713321,-80.31383289999997
Union Area High School,Union Area,7,Public,Senior High,10/3/11,186,97,89,2106 CAMDEN AVE,NEW CASTLE,16101,Lawrence,(724) 658-4501,(724) 658-8617,,Dr. alfonso Angelucci,,,Michael Ross,m_ross@union.k12.pa.us,,Robert Natale,union_ad@union.k12.pa.us,X,X,,X,X,X,,,,,,,X,,,,X,,,X,,,,,,,,,,X,,X,,,41.000549,-80.38453600000003
Wilmington Area High School,Wilmington Area,10,Public,Senior High,10/3/11,402,179,223,350 WOOD ST,NEW WILMINGTON,16142,Lawrence/Mercer,(724) 656-8866,(724) 946-8982,,Joyce Nicksick,,,Robert E Kwiat,kwiat@wilmington.k12.pa.us,,D. Scott Brush,athletics@wilmington.k12.pa.us,X,X,,X,X,X,,,,X,,,X,,,,X,X,,X,X,X,X,,,X,,X,,X,,X,,,41.1236434,-80.3354617
Bradford Area High School,Bradford Area,9,Public,Senior High,10/12/11,637,326,311,81 INTERSTATE PKWY,BRADFORD,16701,McKean,(814) 362-3845,(814) 362-1765,http://www.bradfordareaschools.org,Katharine Pude,kpude@bradfordareaschools.org,,David Ray,dray@bradfordareaschools.org,,Timothy J Walter,twalter@bradfordareaschools.org,X,X,,X,X,X,,,,X,X,X,X,,,X,X,,,X,,X,,,,,,,,X,,X,,,41.9591946,-78.65886949999998
Kane Area High School,Kane Area,9,Public,Senior High,10/3/11,328,145,183,6965 Route 321,KANE,16735,McKean/Elk,(814) 837-6821,(814) 837-6158,http://www.kasd.net,Maryann Anderson,manderson@kasd.net,,Todd Stanko,tstanko@kasd.net,,Jay Israel,jisrael@kasd.net,X,X,,X,X,X,X,,,X,,,X,,,X,X,,,X,,,,,,,,X,,X,,X,,,41.7174894,-78.83627330000002
Otto-Eldred High School,Otto-Eldred,9,Public,Senior High,10/25/11,164,85,79,143 R.L. SWEITZER DR,DUKE CENTER,16729,McKean,(814) 817-1380,(814) 966-3911,,Matthew D Splain,mattsplain@ottoeldred.org,,Harley D. Ramsey,hramsey@ottoeldred.org,,Edward H Reitler,ereitler@ottoeldred.org,X,X,,X,X,X,,,,,,,X,,,,X,,,X,,X,,,,,,X,,X,X,X,,,41.9414248,-78.47381480000001
Port Allegany High School,Port Allegany,9,Public,Senior High,10/21/11,249,127,122,20 OAK STREET,PORT ALLEGANY,16743,McKean/Potter,(814) 642-2544,(814) 642-5082,,Martin A Flint,tflint@pasdedu.org,,Marc Budd,mbudd@pasdedu.org,,Daniel J Stavisky,dstavisky@pasdedu.org,X,X,,X,X,X,,,,X,,,X,,,X,X,,,X,,,,,,,,,,,,X,,,41.8162093,-78.2709092
Smethport Area High School,Smethport Area,9,Public,Senior High,10/11/11,241,113,128,412 S MECHANIC ST,SMETHPORT,16749,McKean,(814) 887-5545,(814) 887-5546,,Charles M. Leasure,cleasure@smethportschools.com,,Robert Miller,r24miller@smethportschools.com,,Rick Woodring,rwoodring@smethportschools.com,X,X,,X,X,X,,,,X,,,X,,,X,X,,,,,,,,,,,,,,,,,,41.8044002,-78.44157139999999
George Junior Republic School,,10,Private,Senior High,10/4/11,326,0,326,233 George Junior Road,GROVE CITY,16127,Mercer,(724) 458-9330,(724) 458-7455,,Rich Mextorf,,,James Anderson,janderson@gjr.k12.pa.us,,Pat Devine,pdevine@georgejuniorrepublic.org,,X,,,,,,,,,,,X,,,,X,,X,X,X,X,X,,,,X,X,,X,X,X,,,41.1759652,-80.10937609999996
Kennedy Catholic High School,,10,Private,Senior High,10/12/11,205,96,109,2120 SHENANGO VALLEY FREEWAY,HERMITAGE,16148,Mercer,(724) 346-5531,(724) 346-3011,http://www.kennedy-catholic.org,,,,Michael Allison,mallision@kennedycatholicschools.org,,Chris Elliott,celliott@kennedycatholicschools.org,X,X,,X,X,X,,,,X,,X,X,,,,X,,,X,X,,,,X,,,X,,X,X,X,,,41.2264423,-80.46999470000003
Living Word Christian School,,10,Private,Senior High,,13,9,4,12 N DIAMOND STREET,GREEENVILLE,16125,Mercer,(724) 373-8336,(724) 588-8742,http://lwcs@verizon.net,,,,Janet M Chapin,lwcs@verizon.net,,,,,X,X,,,,,,,,,,,,,,X,,,X,X,X,X,,,X,,X,,X,X,X,X,,41.4020647,-80.3982135
Youth Educational Services of PA,,10,Private,Senior High,11/8/11,22,0,22,PO BOX 108,MERCER,16137,Mercer,(724) 269-7544,(724) 269-7044,,,,,Joseph J Ferrainola,jf444@zoominternet.net,,,,,X,X,,,,X,,,,,,X,,,,X,,,X,X,,,,,,,X,,X,,X,,,41.2270025,-80.23978520000003
Commodore Perry High School,Commodore Perry,10,Public,Senior High,10/11/11,141,75,66,3002 PERRY HWY,HADLEY,16130,Mercer,(724) 253-2232,(724) 253-2951,http://www.cppanthers.org,Kimberly J Zippie,kzippie@cppanthers.org,,Jeffrey Keeling,jkeeling@cppanthers.org,,Jeffrey A. Briggs,jbriggs@cppanthers.org,X,X,,X,,,,,,X,,,X,,,X,X,,,X,,,X,,,,,X,,X,X,X,X,,41.4680188,-80.19299590000003
Farrell High School,Farrell Area,10,Public,Senior High,10/10/11,227,114,113,1600 ROEMER BLVD,FARRELL,16121,Mercer,(724) 346-6585,(724) 509-1152,http://www.nauticom.net/www/fusds,Rev. lora Adams-king,ladams-king@farrellareaschools.com,,Tracy Hood,thood@farrellareaschools.com,,Matthew Vannoy,mvannoy@farrellareaschools.com,,X,,,X,,,,,,X,,X,X,,,X,,,X,,,,,,,,,,,,X,X,,41.2121285,-80.48583759999997
Greenville High School,Greenville Area,10,Public,Senior High,10/7/11,386,206,180,9 DONATION RD,GREENVILLE,16125,Mercer,(724) 588-2500,(724) 588-4397,,Mark Ferrera,mferrera@greeville.k12.pa.us,,Brian Tokar,btokar@greenville.k12.pa.us,,Trish Devincentis,pdevincentis@greenville.k12.pa.us,X,X,,X,X,X,,,,,,X,X,,,X,X,,,X,,,,,,,,X,,X,X,X,X,,41.404256,-80.37190900000002
Grove City Area High School,Grove City Area,10,Public,Senior High,10/11/11,587,289,298,511 Highland Avenue,Grove City,16127,Mercer,(724) 458-5456,(724) 450-0678,http://grovecity.schoolwires.com/grovecity,Richard Mextorf,,,Rae Lin Howard,,,Bill Jordan,jordan@grovecity.k12.pa.us,X,X,,X,X,X,,,,X,X,X,X,,,X,X,,,X,,,,,,,,,,,,,,,41.16204339999999,-80.09734220000001
Hickory High School,Hermitage,10,Public,Senior High,10/13/11,535,277,258,640 N HERMITAGE RD,HERMITAGE,16148,Mercer,(724) 981-8750,(724) 347-4558,http://www.hermitage.k12.pa.us,Dan J Bell,dan_bell@hermitage.k12.pa.us,,Chris Gill,chris_gill@hermitage.k12.pa.us,,Barbara Ann Dzuricsko,barbara_dzuricsko@hermitage.k12.pa.us,X,X,,X,X,X,X,,,X,X,X,X,,,X,X,X,X,X,X,X,,,,,,X,,X,X,X,X,,41.242048,-80.44983869999999
Lakeview High School,Lakeview,10,Public,Senior High,10/13/11,309,160,149,2482 MERCER ST,STONEBORO,16153,Mercer,(724) 376-7911,(724) 376-7910,,Douglas J. Mays,supt@lakeview.k12.pa.us,,Carol Lilly,c_lilly@lakeview.k12.pa.us,,Brieanna Simons,b_simons@lakeview.k12.pa.us,X,X,,X,X,X,,,,,,,X,,,X,X,,,X,X,,,,,,,,,X,,X,X,,41.3408525,-80.08978300000001
Mercer Area High School,Mercer Area,10,Public,Senior High,10/17/11,336,182,154,545 WEST BUTLER STREET,MERCER,16137,Mercer,(724) 662-5104,(724) 662-2993,http://www.mercer.k12.pa.us,William D. Gathers,bgathers@mercer.k12.pa.us,,Michael G. Piddington,mpiddington@mercer.k12.pa.us,,Stephen W. Hoover,shoover@mercer.k12.pa.us,X,X,,X,X,X,,,,X,,,X,,,X,X,,,X,,,,,,,,X,,X,,X,,,41.2252695,-80.24613449999998
Reynolds High School,Reynolds,10,Public,Senior High,10/3/11,312,134,178,531 REYNOLDS RD,GREENVILLE,16125,Mercer,(724) 646-5500,(724) 646-5705,,Joseph M. Neuch,jneuch@reynolds.k12.pa.us,,Scott Shearer,sshearer@reynolds.k12.pa.us,,Stevan E Waleff,swaleff@reynolds.k12.pa.us,X,X,,X,X,X,,,,,,,X,,,X,X,,,X,,X,X,,,,,X,,X,X,X,,,41.3478774,-80.3979018
Sharon High School,Sharon City,10,Public,Senior High,10/3/11,460,208,252,1129 E STATE ST,SHARON,16146,Mercer,(724) 983-4030,(724) 981-0840,,Michael Calla,michael_calla@sharon.k12.pa.us,,Leonard A Rich,leonard_rich@sharon.k12.pa.us,,Paul Torr,paul_torr@sharon.k12.pa.us,X,X,,X,X,X,,,,X,X,X,X,,,X,X,,,X,,,,,,,,,,X,X,X,,,41.2330815,-80.48823979999997
Sharpsville Area High School,Sharpsville Area,10,Public,Senior High,10/17/11,320,145,175,301 BLUE DEVIL WAY,SHARPSVILLE,16150,Mercer,(724) 962-7861,(724) 962-7730,,Hendley Hoge,hhoge@sharpsville.k12.pa.us,,Kirk J Scurpa,kscurpa@sharpsville.k12.pa.us,,Rhonda Baker,rbaker@sharpsville.k12.pa.us,X,X,,X,X,X,,,,X,,,X,,,X,X,,,X,,X,X,,,,,X,,X,X,X,,,41.2549819,-80.4764973
West Middlesex High School,West Middlesex Area,10,Public,Senior High,10/3/11,304,142,162,3591 SHARON RD,W MIDDLESEX,16159,Mercer,(724) 634-3030,(724) 634-3004,,Dave Foley,,,Kevin M. Briggs,kbriggs@wmasd.k12.pa.us,,Mike Williams,mwilliams@wmasd.k12.pa.us,X,X,,X,X,X,X,,,X,,,X,,,X,X,,,,,,,,,,,,,X,,,,,41.1732108,-80.44963719999998
Austin Area High School,Austin Area,9,Public,Senior High,10/5/11,60,24,36,138 COSTELLO AVE,AUSTIN,16720,Potter,(814) 647-8603,(814) 647-8869,,Kimberly Rees,krees@austinsd.net,,Jerome Sasala,jerome.sasala@austinsd.net,,Kathy Jeffers,kjeffers@austinsd.net,,X,,,,,,,,,,,,,,,X,,,X,,X,,,,,,X,,X,,X,X,,41.6266912,-78.08925679999999
Coudersport High School,Coudersport Area,9,Public,Senior High,10/19/11,176,82,94,698 DWIGHT ST,COUDERSPORT,16915,Potter,(814) 274-8500,(814) 274-8053,,Alana Huck,ahuck@coudyschools.net,,Steve Mongillo,smongillo@coudyschools.net,,John Sherry,jsherry@coudyschools.net,X,X,,X,X,X,,,,X,,,X,,,X,X,,,X,,X,X,,X,,,X,,X,X,X,X,,41.77378059999999,-78.01152359999998
Galeton High School,Galeton Area,4,Public,Senior High,10/5/11,69,35,34,27 BRIDGE ST,GALETON,16922,Potter,(814) 435-6571,(814) 435-6981,http://GASD.NET,David Wishard,gasd2@gasd.net,,Larry Smith,gasd6@gasd.net,,Jim Sunderlin,jsunderlin@gasd.net,X,X,,,,,,,,X,,X,,,,,X,,,,,,,,,,,X,,,,X,X,,41.7357056,-77.64287860000002
Northern Potter High School,Northern Potter,9,Public,Senior High,10/20/11,136,66,70,763 SR49 NORTHERN POTTER RD,ULYSSES,16948,Potter,(814) 848-7534,(814) 848-9671,http://www.npschools.com,Scott V. Graham,sgraham@northernpottersd.org,,Joseph E Eglesia,jeglesia@northernpottersd.org,,Clyde Pierce,cpierce@northernpottersd.org,X,X,,X,,,,,,X,,,X,,,,X,,X,X,X,X,,,,,,X,,X,X,X,X,,41.9039569,-77.7619373
Oswayo Valley High School,Oswayo Valley,9,Public,Senior High,10/7/11,134,59,75,318 S Oswayo Street,SHINGLEHOUSE,16748,Potter/McKean,(814) 260-1701,(814) 697-6375,,Frank Mcclard,fmcclard@oswayo.com,,Brice Benson,bbenson@oswayo.com,,William D. Howard,bhoward@oswayo.com,X,X,,X,,X,,,,,,,X,,,X,X,,,X,X,,,,,,,,,X,,,X,,41.95909289999999,-78.19199650000002
Johnstown Christian High School,,5,Private,Senior High,10/3/11,35,20,15,125 CHRISTIAN SCHOOL ROAD,HOLLSOPPLE,15935-8419,Somerset,(814) 288-2588,(814) 288-1447,http://www.bluejay.org,,,,Margaret Adkins,madkins@jcsfamily.org,,Lori Seth,lseth@jcsfamily.org,,X,,X,,,,,,X,,,,,,,X,,,X,X,,,,,,,,,,,X,X,,40.2502411,-78.95190079999998
Berlin Brothersvalley High School,Berlin Brothersvalley,5,Public,Senior High,10/13/11,244,121,123,1025 E MAIN ST,BERLIN,15530,Somerset,(814) 267-4622,(814) 267-6060,http://www.bbsd.com,Dwayne Northcraft,dnorthcraft@bbsd.com,,William L Deal,bdeal@bbsd.com,,Tanner Prosser,tprosser@bbsd.com,X,X,,X,X,X,,,X,X,,,X,,,X,X,,,X,,,,,,X,,X,,X,,X,X,,39.9211037,-78.94747000000001
Conemaugh Township Area High School,Conemaugh Township Area,5,Public,Senior High,10/4/11,254,123,131,300 E CAMPUS AVE,DAVIDSVILLE,15928,Somerset,(814) 479-4014,(814) 479-2038,http://www.ctasd.org,Gary Buchsen,gary.buchsen@ctasd.org,,David Koba,david.koba@ctasd.org,,Jim Foster,james.foster@ctasd.org,X,X,,,X,X,,,X,X,,,X,,,X,X,,,,,,,,,,,X,,X,,X,X,,40.2259079,-78.93561199999999
Meyersdale Area High School,Meyersdale Area,5,Public,Senior High,10/6/11,215,98,117,1349 SHAW MINES RD,MEYERSDALE,15552,Somerset,(814) 634-8311,(814) 634-5100,http://masd.net,Tracey A. Karlie,trkarlie@masd.net,,John Wiltrout,jwiltrout@masd.net,,Craig Gindlesperger,cgindlesperger@masd.net,X,X,,X,X,,,,X,,,,X,,,X,X,,,X,,X,,,,,,X,,X,,X,,,39.7973174,-79.04473659999996
North Star High School,North Star,5,Public,Senior High,10/7/11,305,156,149,400 OHIO ST,BOSWELL,15531,Somerset,(814) 629-1148,(814) 629-1149,,,,,Louis Lepley,llepley@nscougars.com,,Stacy Schmitt,sschmitt@nscougars.com,X,X,,,X,X,,,X,X,,,,,,X,X,,,X,,X,,,X,,,X,,X,,X,,,40.159175,-79.02939900000001
Rockwood Area High School,Rockwood Area,5,Public,Senior High,10/3/11,253,129,124,437 SOMERSET AVE,ROCKWOOD,15557,Somerset,(814) 926-4631,(814) 926-2631,http://www.rockwoodschools.org,,,,Mark Bower,mbower@rockwoodschools.org,,Sandra King,sking@rockwoodschools.org,X,X,,,X,X,,,X,X,,,X,,,,X,,X,X,X,X,X,,X,X,,X,,X,X,X,X,,39.9174606,-79.15926910000002
Salisbury Elk Lick High School,Salisbury Elk Lick,5,Public,Senior High,10/4/11,74,32,42,196 SMITH AVE,SALISBURY,15558,Somerset,(814) 662-2741,(814) 662-2091,http://www.selsd.com,Joseph Renzi,renzij@selsd.com,,Kenneth W Fusina,fusinak@selsd.com,,Marty Kemp,,X,X,,,,,,,X,X,,,,,,,,,,,,,,,,,,,,,,,,,39.7531367,-79.0828583
Shade High School,Shade-Central City,5,Public,Senior High,10/4/11,143,67,76,203 McGregor Avenue,Cairnbrook,15924,Somerset,(814) 754-4648,(814) 754-5848,http://www.shade.k12.pa.us,John Krupper,jkrupper@shade.k12.pa.us,,Sean Wechtenhiser,swechtenhiser@shade.k12.pa.us,,Mike Pribish,mpribish@shade.k12.pa.us,X,X,,,X,,,,,,,,X,,,X,X,,,,,,,,,,,X,,,,,X,,40.1194135,-78.8177336
Shanksville Stonycreek High School,Shanksville-Stonycreek,5,Public,Senior High,10/14/11,96,40,56,PO Box 128,SHANKSVILLE,15560,Somerset,(814) 267-4649,(814) 267-4372,,Thomas Mcinroy,tmcinroy@sssd.com,,Samuel Romesberg,sromesberg@sssd.com,,Robert E sembower J,hsembower@sssd.com,X,X,,X,,X,,,X,,,,,,,,X,X,,X,X,X,X,,,X,,X,,X,,X,X,,40.0183997,-78.90937509999998
Somerset Area High School,Somerset Area,5,Public,Senior High,10/7/11,600,289,311,645 S COLUMBIA AVE,SOMERSET,15501,Somerset,(814) 443-2831,(814) 443-6624,http://www.sasd.us,Krista Mathias,kmathi@sasd.us,,Scott Shirley,sshirl@sasd.us,,Scott Close,sclose@sasd.us,X,X,,X,X,X,,,X,X,X,X,X,,,X,X,,,,,,,,,,,,,,,X,X,,40.0027823,-79.08598540000003
Turkeyfoot Valley Area High School,Turkeyfoot Valley Area,5,Public,Senior High,10/3/11,102,58,44,172 TURKEYFOOT RD,CONFLUENCE,15424,Somerset,(814) 395-3621,(814) 395-3366,http://www.turkeyfoot.k12.pa.us,Darlene Pritt,dpritt@turkeyfoot.k12.pa.us,,Jeff Malaspino,malaspino@turkeyfoot.k12.pa.us,,Gerald Conn,gpconn@turkeyfoot.k12.pa.us,X,X,,,,,,,X,,,,,,,,X,,,,,,,,,X,,,,,,X,X,,39.7989352,-79.32882990000002
Windber Area High School,Windber Area,5,Public,Senior High,10/17/11,306,153,153,2301 Graham Avenue,Windber,15963,Somerset/Cambria,(814) 467-4567,(814) 467-0677,http://www.windberschools.org,Richard Huffman,rhuffman@windberschools.org,,Lisa James,ljames@windberschools.org,,Todd William Bostock,tbostock@windberschools.org,X,X,,X,X,X,,,,X,,X,X,,,,X,,,X,,,,,,,,,,,,,X,,40.2304427,-78.82429080000003
Venango Catholic High School,,9,Private,Senior High,10/5/11,65,27,38,1505 W 1ST ST,OIL CITY,16301,Venango,(814) 677-3098,(814) 676-4453,http://www.venangocatholic.org,Nicholas Rouch,,,T. Shane Mathew,smathew@venangocatholic.org,,Thomas M. Mcnellie,tmcnellie@venangocatholic.org,X,X,,,,X,,,,,,,,,,,,,,,,,,,,,,,,,,,,,41.4140959,-79.72696059999998
Visionquest,,10,Private,Senior High,10/5/11,62,0,62,PO BOX 168,FRANKLIN,16323,Venango,(814) 432-7969,(814) 432-3249,,,,,Elizabeth Klink,elizabeth.klink@vq.com,,Richard Gordon,robin.lafon@vq.com,,X,,,,,,,,,,,,,,,X,,,,,,,,,,,X,,,X,X,,,41.3978358,-79.83144370000002
Cranberry Area High School,Cranberry Area,9,Public,Senior High,10/10/11,304,169,135,1 EDUCATION DR,SENECA,16346,Venango,(814) 676-8504,(814) 676-5156,,Maria Pappas,mpappas@cranberrysd.org,,William C Vonada,BVONADA@CRANBERRYSD.ORG,,Brad A Earp,bearp@cranberrysd.org,X,X,,X,,X,,,,,,,X,,,X,X,,,,,,X,,,,,X,,X,,,X,,41.3669916,-79.71412670000001
Franklin Area High School,Franklin Area,10,Public,Senior High,10/17/11,505,247,258,246 PONE LN,FRANKLIN,16323,Venango,(814) 432-2121,(814) 432-5031,http://WWW.FASD.K12.PA.US,Pamela Dye,dye@fasd.k12.pa.us,,Gary Canfora,canforag@fasd.k12.pa.us,,Maureen H. Hager,hagerm@fasd.k12.pa.us,X,X,,X,X,X,,,,X,X,,X,,,X,X,,,X,X,X,,,,,,,,,,X,,,41.370091,-79.84881769999998
Oil City Area Senior High School,Oil City Area,10,Public,Senior High,10/3/11,582,264,318,10 LYNCH BLVD,OIL CITY,16301,Venango,(814) 676-2771,(814) 677-7256,http://www.ocasd.org,Dr. joseph L Carrico,jcarrico@mail.ocasd.org,,Mr. scott Stahl,sstahl@mail.ocasd.org,,Rick Fletcher,oilcityad@mail.ocasd.org,X,X,,X,X,X,,,,X,X,X,X,,,X,X,,,,X,,,,,,,,,,,,,,41.4316504,-79.6827667
Rocky Grove Junior-Senior High School,Valley Grove,10,Public,Senior High,10/10/11,230,112,118,403 ROCKY GROVE AVE,FRANKLIN,16323,Venango,(814) 437-3759,(814) 437-1062,,Jeffrey Clark,jclark@vgsd.org,,Matthew Laverde,mlaverde@vgsd.org,,William Mook,bmook@vgsd.org,X,X,,X,,X,,,,,X,X,,X,,,X,,,X,,X,X,,,,,X,,X,,X,X,,41.4109159,-79.82555350000001
Tidioute Community Charter High School,Warren County,10,Charter,Senior High,10/5/11,56,25,31,241 MAIN STREET,TIDIOUTE,16351,Warren,(814) 484-3550,(814) 484-3977,,,,,Doug Allen,,,Ryan James Guerra,rguerra@tidioutecharter.com,,X,,X,,,,,,,,,,,,,X,,,X,,,,,,,,,,,,X,X,,41.683095,-79.4026442
Warren County Christian School,,10,Private,Senior High,10/3/11,15,12,3,165 Mead Run Road,YOUNGSVILLE,16371,Warren,(814) 563-4457,(814) 563-7647,,,,,Richard J Kolcharno,wccsprin@kinzua.net,,Richard Kolcharno,wccsprin@kinzua.net,,X,,,,,,,,,,,,,,,X,,X,X,,X,X,,,,,X,,X,X,X,X,,41.846137,-79.33921299999997
Eisenhower Middle High School,Warren County,10,Public,Senior High,10/13/11,242,112,130,3700 Rt 957,RUSSELL,16345,Warren,(814) 757-8878,(814) 757-8516,,William Clark,clarkw@wcsdpa.org,,Kelly Martin,martink@wcsdpa.org,,Bill Vanatta,vanattaw@wcsdpa.org,X,X,,X,X,X,,,,X,,,X,,,X,X,,,,,,,,,,,,,,,,X,,41.963453,-79.20323200000001
Sheffield Area High School,Warren County,9,Public,Senior High,10/17/11,145,66,79,6760 Route 6,SHEFFIELD,16347,Warren,(814) 968-3720,(814) 968-4233,,William A. Clark,clarkw@wcsdpa.org,,Amy Beers,beersam@wcsdpa.org,,Corey B Copley,copleyc@wcsdpa.org,,X,,,X,,,,,,,,X,,,X,X,,,,,,,,,,,,,X,,X,,,41.716942,-79.0439619
Warren Area High School,Warren County,10,Public,Senior High,10/12/11,583,285,298,345 E 5TH AVE,WARREN,16365,Warren,(814) 723-3370,(814) 726-3126,http://www.wcsd.pa.org,William Clark,Clarkw@wcsdpa.org,,Jeffrey Flickner,flicknerj@wcsdpa.org,,Jeffrey White,whitej@wcsdpa.org,X,X,,X,X,X,,,,X,X,X,X,,,X,X,,,,,,,,,,,X,,X,,,X,,41.8571435,-79.13608909999999
Youngsville High School,Warren County,10,Public,Senior High,10/4/11,236,108,128,227 COLLEGE ST,YOUNGSVILLE,16371,Warren,(814) 563-7573,(814) 563-4459,,William Clark,clarkw@wcsdpa.org,,Philip Knapp,KnappPA@wcsdpa.org,,Joseph Mcclellan,mcclellanjc@wcsdpa.org,X,X,,X,X,,,,,,,,X,,,X,X,,,,,,,,,,,X,,X,,,X,,41.8521734,-79.3147265
Avella Area High School,Avella Area,7,Public,Senior High,10/26/11,161,72,89,1000 AVELLA RD,AVELLA,15312,Washington,(724) 356-2216,(724) 356-7905,http://avella.hky.com,Janell Logue-belden,logue-beldenj@avella.k12.pa.us,,Thomas G. Graham,grahamt@avella.k12.pa.us,,Jason Fogg,foggj@avella.k12.pa.us,X,X,,X,X,,,,X,,,,X,,,X,,,,,X,,,,,,,,,,,,,,40.2724167,-80.41987970000002
Bentworth High School,Bentworth,7,Public,Senior High,10/5/11,330,164,166,75 BEARCAT DR,BENTLEYVILLE,15314,Washington,(724) 239-5911,(724) 239-4010,http://www.bentworth.org,Charles Baker,cbaker@bentworth.k12.pa.us,,George Lammay,glammay@bentworth.k12.pa.us,,George Linck,glinck@bentworth.k12.pa.us,X,X,,,X,X,,,,X,,,X,,,X,X,,,,,,,,,,,,,,,,X,,40.1246626,-80.0214507
Bethlehem Center High School,Bethlehem Center,7,Public,Senior High,10/4/11,330,166,164,179 CRAWFORD RD,FREDERICKTOWN,15333,Washington,(724) 267-4944,(724) 267-4907,,,,,Aaron Cornell,cornella@bc.k12.pa.us,,Barry Niemiec,bc-ad@bc.k12.pa.us,X,X,,,X,X,,,,X,,,X,,,X,X,X,X,X,,X,X,,X,,,X,,X,X,X,X,,40.0189308,-80.02423870000001
Burgettstown Area High School,Burgettstown Area,7,Public,Senior High,10/12/11,339,145,194,104 BAVINGTON RD,BURGETTSTOWN,15021,Washington,(724) 947-8100,(724) 947-3325,,Deborah Jackson,djackson@burgettstown.k12.pa.us,,Michael Wright,mwright@burgettstown.k12.pa.us,,Terry Havelka,thavelka@burgettstown.k12.pa.us,X,X,,X,X,X,,,,,,,X,,,X,X,,,,,,,,,,,,,X,,,X,,40.397842,-80.38890630000003
California Area High School,California Area,7,Public,Senior High,10/14/11,254,118,136,11 Trojan Way,COAL CENTER,15423,Washington,(724) 785-5800,(724) 785-8860,http://www.calsd.org,Brian Jackson,jacksonb@calsd.org,,Leigh ann Folmar,folmarl@calsd.org,,Phil Pergola,pergolap@calsd.org,X,X,,,X,X,,,,X,,,X,,,,,,,,,,,,,,,,,,,,,,40.0449275,-79.92644089999999
Canon McMillan High School,Canon Mcmillan,7,Public,Senior High,10/6/11,1189,589,600,314 ELM STREET EX,CANONSBURG,15317,Washington,(724) 745-1400,(724) 745-2258,http://WWW.CMSD.K12.PA.US,Michael Daniels,danielsm@cmsd.k12.pa.us,,David Helinski,,,Guy Montecalvo,montecalvog@cmsd.k12.pa.us,X,X,,X,X,X,X,X,,X,X,X,X,X,,X,X,,,X,,,,,,X,,X,,,,,,,40.2497847,-80.19374399999998
Charleroi Area High School,Charleroi,7,Public,Senior High,10/13/11,405,189,216,100 FECSEN DR,CHARLEROI,15022,Washington,(724) 483-3573,(724) 483-2294,http://WWW.CHARLEROISD.ORG,Brad A Ferko,bferko@charleroisd.org,,Patricia L Mason,pmason@charleroisd.org,,Bill Wiltz,bwiltz@charleroisd.org,X,X,,,X,X,,,,X,,,X,,,X,X,,X,X,,,,,,,,X,,,,,X,,40.1559287,-79.91881239999998
Chartiers Houston High School,Chartiers Houston,7,Public,Senior High,10/3/11,325,163,162,2050 W PIKE ST,HOUSTON,15342,Washington,(724) 745-3350,(724) 745-3495,,John George,john.george@chartiers-houstonsd.com,,Philip Mary,philip.mary@chartiers-houstonsd.com,,Kurt Kesneck,kurt.kesneck@chartiers-houstonsd.com,X,X,,X,X,X,,,,X,,X,X,,,X,X,,,,,,,,,,,,,,,,X,,40.2314286,-80.2156458
Fort Cherry High School,Fort Cherry,7,Public,Senior High,10/16/11,304,149,155,110 FORT CHERRY RD,MCDONALD,15057,Washington/Allegheny,(724) 796-1551,(724) 356-2769,http://WWW.FORTCHERRY.ORG,Robert Dinnen,rdinnen@fortcherry.org,,Robert Frioni,rfrioni@fortcherry.org,,Tom Scarpone,tscarpone@fortcherry.org,X,X,,X,X,X,,,,,,X,X,,,X,X,,,,,,,,,,,,,,,,X,,40.3480222,-80.28189800000001
McGuffey High School,Mcguffey,7,Public,Senior High,10/14/11,524,236,288,86 MCGUFFEY DR,CLAYSVILLE,15323,Washington,(724) 948-3328,(724) 948-3344,,Beverly Arbore,,,Mark Bonus,bonusm@mcguffey.k12.pa.us,,Ed Dalton,daltone@mcguffey.k12.pa.us,X,X,,X,X,X,,,X,X,,X,X,,,X,X,,,,,,,,,,,,,,,,,,40.1428342,-80.36465269999997
Peters Township High School,Peters Township,7,Public,Senior High,10/3/11,1166,583,583,264 E MCMURRAY RD,MCMURRAY,15317,Washington,(724) 941-6250,(724) 941-3915,,Jeannine French,FrenchJ@pt-sd.org,,Lori A Pavlik,PavlikL@pt-sd.org,,Brian Geyer,GeyerB@pt-sd.org,X,X,X,X,X,X,X,X,,X,X,X,X,X,,X,,,,X,,,,,,,,,,,,,,,40.28109329999999,-80.08102650000001
Ringgold High School,Ringgold,7,Public,Senior High,10/17/11,827,410,417,1 RAM DRIVE,MONONGAHELA,15063,Washington,(724) 258-2208,(724) 258-6322,http://www.ringgold.org,Karen Polkabla,kpolkabla@ringgold.org,,Jason Minniti,jminniti@ringgold.org,,Ron Mcmichael,rmcmichael@ringgold.org,X,X,,X,X,X,X,,,X,X,X,X,,,X,X,X,X,X,X,X,X,,X,X,,X,,X,X,X,X,,40.1967653,-79.98091320000003
Trinity High School,Trinity Area,7,Public,Senior High,10/6/11,870,422,448,231 PARK AVE,WASHINGTON,15301,Washington,(724) 225-5380,(724) 228-9057,,,,,Donald L Snoke,snoked@trinitypride.org,,Bobby Jones,jonesb@trinitypride.org,X,X,,X,X,X,X,X,X,X,X,X,X,X,,X,X,X,,,,X,X,,,,,X,,X,,,X,,40.1630864,-80.24890319999997
Washington High School,Washington,7,Public,Senior High,10/5/11,394,182,212,201 ALLISON AVENUE,WASHINGTON,15301,Washington,(724) 223-5085,(724) 223-5046,,Roberta Dilorenzo,dilorenzo@washington.k12.pa.us,,Frank Rotunda,rotunda@washington.k12.pa.us,,Joseph Nicolella,nicolella@washington.k12.pa.us,X,X,,X,X,,,,X,X,,X,X,,,X,X,X,,,,,,,,,,X,,X,X,X,X,,40.17374119999999,-80.25212119999998
Greensburg Central Catholic High School,,7,Private,Senior High,10/5/11,311,151,160,911 ARMORY DR,GREENSBURG,15601,Westmoreland,(724) 834-0310,(724) 834-2472,,Mr. Trent Bocan,tbocan@dioceseofgreensburg.org,,Mary Norbert,smnlong@gcchs.org,,Daniel W Mahoney,dwmahoney@gcchs.org,X,X,X,X,X,X,,X,,X,,X,X,,,,,,,,,,,,,,,,,,,,,,40.2862285,-79.55485629999998
